---
'00705':
  :zip: '00705'
  :city: AIBONITO
  :state: PR
  :lat: 18.14
  :long: -66.26
'00610':
  :zip: '00610'
  :city: ANASCO
  :state: PR
  :lat: 18.28
  :long: -67.14
'00611':
  :zip: '00611'
  :city: ANGELES
  :state: PR
  :lat: 18.28
  :long: -66.79
'00612':
  :zip: '00612'
  :city: ARECIBO
  :state: PR
  :lat: 18.45
  :long: -66.73
'00601':
  :zip: '00601'
  :city: ADJUNTAS
  :state: PR
  :lat: 18.16
  :long: -66.72
'00631':
  :zip: '00631'
  :city: CASTANER
  :state: PR
  :lat: 18.19
  :long: -66.82
'00602':
  :zip: '00602'
  :city: AGUADA
  :state: PR
  :lat: 18.38
  :long: -67.18
'00603':
  :zip: '00603'
  :city: AGUADILLA
  :state: PR
  :lat: 18.43
  :long: -67.15
'00604':
  :zip: '00604'
  :city: AGUADILLA
  :state: PR
  :lat: 18.43
  :long: -67.15
'00605':
  :zip: '00605'
  :city: AGUADILLA
  :state: PR
  :lat: 18.43
  :long: -67.15
'00703':
  :zip: '00703'
  :city: AGUAS BUENAS
  :state: PR
  :lat: 18.25
  :long: -66.1
'00704':
  :zip: '00704'
  :city: AGUIRRE
  :state: PR
  :lat: 17.96
  :long: -66.22
'07675':
  :zip: '07675'
  :city: WESTWOOD
  :state: NJ
  :lat: 40.98
  :long: -74.03
'07677':
  :zip: '07677'
  :city: WOODCLIFF LAKE
  :state: NJ
  :lat: 41.02
  :long: -74.05
07885:
  :zip: 07885
  :city: WHARTON
  :state: NJ
  :lat: 40.89
  :long: -74.58
07981:
  :zip: 07981
  :city: WHIPPANY
  :state: NJ
  :lat: 40.82
  :long: -74.41
07999:
  :zip: 07999
  :city: WHIPPANY
  :state: NJ
  :lat: 40.82
  :long: -74.41
08888:
  :zip: 08888
  :city: WHITEHOUSE
  :state: NJ
  :lat: 40.62
  :long: -74.76
08889:
  :zip: 08889
  :city: WHITEHOUSE STATION
  :state: NJ
  :lat: 40.6
  :long: -74.76
07095:
  :zip: 07095
  :city: WOODBRIDGE
  :state: NJ
  :lat: 40.55
  :long: -74.28
07481:
  :zip: 07481
  :city: WYCKOFF
  :state: NJ
  :lat: 40.99
  :long: -74.16
'10451':
  :zip: '10451'
  :city: BRONX
  :state: NY
  :lat: 40.84
  :long: -73.87
'10452':
  :zip: '10452'
  :city: BRONX
  :state: NY
  :lat: 40.84
  :long: -73.87
'10453':
  :zip: '10453'
  :city: BRONX
  :state: NY
  :lat: 40.84
  :long: -73.87
'10454':
  :zip: '10454'
  :city: BRONX
  :state: NY
  :lat: 40.84
  :long: -73.87
'10455':
  :zip: '10455'
  :city: BRONX
  :state: NY
  :lat: 40.84
  :long: -73.87
'10456':
  :zip: '10456'
  :city: BRONX
  :state: NY
  :lat: 40.84
  :long: -73.87
'10457':
  :zip: '10457'
  :city: BRONX
  :state: NY
  :lat: 40.84
  :long: -73.87
'10458':
  :zip: '10458'
  :city: BRONX
  :state: NY
  :lat: 40.84
  :long: -73.87
'10459':
  :zip: '10459'
  :city: BRONX
  :state: NY
  :lat: 40.84
  :long: -73.87
'10460':
  :zip: '10460'
  :city: BRONX
  :state: NY
  :lat: 40.84
  :long: -73.87
'10461':
  :zip: '10461'
  :city: BRONX
  :state: NY
  :lat: 40.84
  :long: -73.87
'10462':
  :zip: '10462'
  :city: BRONX
  :state: NY
  :lat: 40.84
  :long: -73.87
'10463':
  :zip: '10463'
  :city: BRONX
  :state: NY
  :lat: 40.84
  :long: -73.87
'10464':
  :zip: '10464'
  :city: BRONX
  :state: NY
  :lat: 40.84
  :long: -73.87
'10465':
  :zip: '10465'
  :city: BRONX
  :state: NY
  :lat: 40.84
  :long: -73.87
'10466':
  :zip: '10466'
  :city: BRONX
  :state: NY
  :lat: 40.84
  :long: -73.87
'10467':
  :zip: '10467'
  :city: BRONX
  :state: NY
  :lat: 40.84
  :long: -73.87
'10468':
  :zip: '10468'
  :city: BRONX
  :state: NY
  :lat: 40.84
  :long: -73.87
'10469':
  :zip: '10469'
  :city: BRONX
  :state: NY
  :lat: 40.84
  :long: -73.87
'10470':
  :zip: '10470'
  :city: BRONX
  :state: NY
  :lat: 40.84
  :long: -73.87
'10471':
  :zip: '10471'
  :city: BRONX
  :state: NY
  :lat: 40.84
  :long: -73.87
'10472':
  :zip: '10472'
  :city: BRONX
  :state: NY
  :lat: 40.84
  :long: -73.87
'10473':
  :zip: '10473'
  :city: BRONX
  :state: NY
  :lat: 40.84
  :long: -73.87
'10474':
  :zip: '10474'
  :city: BRONX
  :state: NY
  :lat: 40.84
  :long: -73.87
'10475':
  :zip: '10475'
  :city: BRONX
  :state: NY
  :lat: 40.84
  :long: -73.87
'10499':
  :zip: '10499'
  :city: BRONX
  :state: NY
  :lat: 40.84
  :long: -73.87
'10001':
  :zip: '10001'
  :city: NEW YORK
  :state: NY
  :lat: 40.71
  :long: -73.99
'10002':
  :zip: '10002'
  :city: NEW YORK
  :state: NY
  :lat: 40.71
  :long: -73.99
'10003':
  :zip: '10003'
  :city: NEW YORK
  :state: NY
  :lat: 40.71
  :long: -73.99
'10004':
  :zip: '10004'
  :city: NEW YORK
  :state: NY
  :lat: 40.71
  :long: -73.99
'10005':
  :zip: '10005'
  :city: NEW YORK
  :state: NY
  :lat: 40.71
  :long: -73.99
'10006':
  :zip: '10006'
  :city: NEW YORK
  :state: NY
  :lat: 40.71
  :long: -73.99
'10007':
  :zip: '10007'
  :city: NEW YORK
  :state: NY
  :lat: 40.71
  :long: -73.99
'10008':
  :zip: '10008'
  :city: NEW YORK
  :state: NY
  :lat: 40.71
  :long: -73.99
'10009':
  :zip: '10009'
  :city: NEW YORK
  :state: NY
  :lat: 40.71
  :long: -73.99
'10010':
  :zip: '10010'
  :city: NEW YORK
  :state: NY
  :lat: 40.71
  :long: -73.99
'10011':
  :zip: '10011'
  :city: NEW YORK
  :state: NY
  :lat: 40.71
  :long: -73.99
'10012':
  :zip: '10012'
  :city: NEW YORK
  :state: NY
  :lat: 40.71
  :long: -73.99
'10013':
  :zip: '10013'
  :city: NEW YORK
  :state: NY
  :lat: 40.71
  :long: -73.99
'10014':
  :zip: '10014'
  :city: NEW YORK
  :state: NY
  :lat: 40.71
  :long: -73.99
'10016':
  :zip: '10016'
  :city: NEW YORK
  :state: NY
  :lat: 40.71
  :long: -73.99
'10017':
  :zip: '10017'
  :city: NEW YORK
  :state: NY
  :lat: 40.71
  :long: -73.99
'10018':
  :zip: '10018'
  :city: NEW YORK
  :state: NY
  :lat: 40.71
  :long: -73.99
'10019':
  :zip: '10019'
  :city: NEW YORK
  :state: NY
  :lat: 40.71
  :long: -73.99
'10020':
  :zip: '10020'
  :city: NEW YORK
  :state: NY
  :lat: 40.71
  :long: -73.99
'10021':
  :zip: '10021'
  :city: NEW YORK
  :state: NY
  :lat: 40.77
  :long: -73.95
'10022':
  :zip: '10022'
  :city: NEW YORK
  :state: NY
  :lat: 40.71
  :long: -73.99
'10023':
  :zip: '10023'
  :city: NEW YORK
  :state: NY
  :lat: 40.71
  :long: -73.99
'10024':
  :zip: '10024'
  :city: NEW YORK
  :state: NY
  :lat: 40.71
  :long: -73.99
'10025':
  :zip: '10025'
  :city: NEW YORK
  :state: NY
  :lat: 40.71
  :long: -73.99
'10026':
  :zip: '10026'
  :city: NEW YORK
  :state: NY
  :lat: 40.71
  :long: -73.99
'10027':
  :zip: '10027'
  :city: NEW YORK
  :state: NY
  :lat: 40.71
  :long: -73.99
'10028':
  :zip: '10028'
  :city: NEW YORK
  :state: NY
  :lat: 40.71
  :long: -73.99
'10029':
  :zip: '10029'
  :city: NEW YORK
  :state: NY
  :lat: 40.71
  :long: -73.99
'10030':
  :zip: '10030'
  :city: NEW YORK
  :state: NY
  :lat: 40.71
  :long: -73.99
'10031':
  :zip: '10031'
  :city: NEW YORK
  :state: NY
  :lat: 40.71
  :long: -73.99
'10032':
  :zip: '10032'
  :city: NEW YORK
  :state: NY
  :lat: 40.71
  :long: -73.99
'10033':
  :zip: '10033'
  :city: NEW YORK
  :state: NY
  :lat: 40.71
  :long: -73.99
'10034':
  :zip: '10034'
  :city: NEW YORK
  :state: NY
  :lat: 40.71
  :long: -73.99
'00613':
  :zip: '00613'
  :city: ARECIBO
  :state: PR
  :lat: 18.45
  :long: -66.73
'00614':
  :zip: '00614'
  :city: ARECIBO
  :state: PR
  :lat: 18.45
  :long: -66.73
'00714':
  :zip: '00714'
  :city: ARROYO
  :state: PR
  :lat: 17.97
  :long: -66.06
'00616':
  :zip: '00616'
  :city: BAJADERO
  :state: PR
  :lat: 18.4
  :long: -66.66
'00617':
  :zip: '00617'
  :city: BARCELONETA
  :state: PR
  :lat: 18.45
  :long: -66.53
00794:
  :zip: 00794
  :city: BARRANQUITAS
  :state: PR
  :lat: 18.18
  :long: -66.3
'00622':
  :zip: '00622'
  :city: BOQUERON
  :state: PR
  :lat: 17.99
  :long: -67.15
'00623':
  :zip: '00623'
  :city: CABO ROJO
  :state: PR
  :lat: 18.08
  :long: -67.14
'00627':
  :zip: '00627'
  :city: CAMUY
  :state: PR
  :lat: 18.48
  :long: -66.84
00729:
  :zip: 00729
  :city: CANOVANAS
  :state: PR
  :lat: 18.37
  :long: -65.9
00979:
  :zip: 00979
  :city: CAROLINA
  :state: PR
  :lat: 18.4
  :long: -65.98
00981:
  :zip: 00981
  :city: CAROLINA
  :state: PR
  :lat: 18.4
  :long: -65.98
00982:
  :zip: 00982
  :city: CAROLINA
  :state: PR
  :lat: 18.4
  :long: -65.98
00983:
  :zip: 00983
  :city: CAROLINA
  :state: PR
  :lat: 18.4
  :long: -65.98
00984:
  :zip: 00984
  :city: CAROLINA
  :state: PR
  :lat: 18.4
  :long: -65.98
00985:
  :zip: 00985
  :city: CAROLINA
  :state: PR
  :lat: 18.4
  :long: -65.98
00986:
  :zip: 00986
  :city: CAROLINA
  :state: PR
  :lat: 18.4
  :long: -65.98
00987:
  :zip: 00987
  :city: CAROLINA
  :state: PR
  :lat: 18.4
  :long: -65.98
00988:
  :zip: 00988
  :city: CAROLINA
  :state: PR
  :lat: 18.4
  :long: -65.98
'00736':
  :zip: '00736'
  :city: CAYEY
  :state: PR
  :lat: 18.11
  :long: -66.16
00739:
  :zip: 00739
  :city: CIDRA
  :state: PR
  :lat: 18.17
  :long: -66.15
00769:
  :zip: 00769
  :city: COAMO
  :state: PR
  :lat: 18.08
  :long: -66.36
00782:
  :zip: 00782
  :city: COMERIO
  :state: PR
  :lat: 18.22
  :long: -66.22
00783:
  :zip: 00783
  :city: COROZAL
  :state: PR
  :lat: 18.34
  :long: -66.31
09848:
  :zip: 09848
  :city: APO
  :state: AE
  :lat: 0.0
  :long: 0.0
'10200':
  :zip: '10200'
  :city: NEW YORK
  :state: NY
  :lat: 40.77
  :long: 73.95
09323:
  :zip: 09323
  :city: APO
  :state: AE
  :lat: -44.25
  :long: 33.53
00659:
  :zip: 00659
  :city: HATILLO
  :state: PR
  :lat: 18.48
  :long: -66.82
'00660':
  :zip: '00660'
  :city: HORMIGUEROS
  :state: PR
  :lat: 18.14
  :long: -67.12
00791:
  :zip: 00791
  :city: HUMACAO
  :state: PR
  :lat: 18.15
  :long: -65.81
00792:
  :zip: 00792
  :city: HUMACAO
  :state: PR
  :lat: 18.15
  :long: -65.81
'00662':
  :zip: '00662'
  :city: ISABELA
  :state: PR
  :lat: 18.5
  :long: -67.02
'00664':
  :zip: '00664'
  :city: JAYUYA
  :state: PR
  :lat: 18.22
  :long: -66.59
00795:
  :zip: 00795
  :city: JUANA DIAZ
  :state: PR
  :lat: 18.05
  :long: -66.5
'00777':
  :zip: '00777'
  :city: JUNCOS
  :state: PR
  :lat: 18.22
  :long: -65.91
00728:
  :zip: 00728
  :city: PONCE
  :state: PR
  :lat: 17.98
  :long: -66.6
'00725':
  :zip: '00725'
  :city: CAGUAS
  :state: PR
  :lat: 18.23
  :long: -66.03
'00726':
  :zip: '00726'
  :city: CAGUAS
  :state: PR
  :lat: 18.23
  :long: -66.03
'00727':
  :zip: '00727'
  :city: CAGUAS
  :state: PR
  :lat: 18.23
  :long: -66.03
'00737':
  :zip: '00737'
  :city: CAYEY
  :state: PR
  :lat: 18.11
  :long: -66.16
'00735':
  :zip: '00735'
  :city: CEIBA
  :state: PR
  :lat: 18.26
  :long: -65.64
'00742':
  :zip: '00742'
  :city: ROOSEVELT ROADS
  :state: PR
  :lat: 18.27
  :long: -65.65
00638:
  :zip: 00638
  :city: CIALES
  :state: PR
  :lat: 18.33
  :long: -66.47
00780:
  :zip: 00780
  :city: COTO LAUREL
  :state: PR
  :lat: 18.09
  :long: -66.57
'00775':
  :zip: '00775'
  :city: CULEBRA
  :state: PR
  :lat: 18.31
  :long: -65.3
'00646':
  :zip: '00646'
  :city: DORADO
  :state: PR
  :lat: 18.47
  :long: -66.27
'00647':
  :zip: '00647'
  :city: ENSENADA
  :state: PR
  :lat: 17.96
  :long: -66.94
00738:
  :zip: 00738
  :city: FAJARDO
  :state: PR
  :lat: 18.33
  :long: -65.65
'00650':
  :zip: '00650'
  :city: FLORIDA
  :state: PR
  :lat: 18.36
  :long: -66.56
'00652':
  :zip: '00652'
  :city: GARROCHALES
  :state: PR
  :lat: 18.45
  :long: -66.6
'00653':
  :zip: '00653'
  :city: GUANICA
  :state: PR
  :lat: 17.97
  :long: -66.93
00784:
  :zip: 00784
  :city: GUAYAMA
  :state: PR
  :lat: 17.97
  :long: -66.11
00785:
  :zip: 00785
  :city: GUAYAMA
  :state: PR
  :lat: 17.97
  :long: -66.11
'00656':
  :zip: '00656'
  :city: GUAYANILLA
  :state: PR
  :lat: 18.02
  :long: -66.79
00965:
  :zip: 00965
  :city: GUAYNABO
  :state: PR
  :lat: 18.38
  :long: -66.11
00966:
  :zip: 00966
  :city: GUAYNABO
  :state: PR
  :lat: 18.38
  :long: -66.11
00968:
  :zip: 00968
  :city: GUAYNABO
  :state: PR
  :lat: 18.38
  :long: -66.11
00969:
  :zip: 00969
  :city: GUAYNABO
  :state: PR
  :lat: 18.38
  :long: -66.11
00970:
  :zip: 00970
  :city: GUAYNABO
  :state: PR
  :lat: 18.38
  :long: -66.11
00971:
  :zip: 00971
  :city: GUAYNABO
  :state: PR
  :lat: 18.38
  :long: -66.11
00778:
  :zip: 00778
  :city: GURABO
  :state: PR
  :lat: 18.25
  :long: -65.97
'00667':
  :zip: '00667'
  :city: LAJAS
  :state: PR
  :lat: 18.04
  :long: -67.06
00786:
  :zip: 00786
  :city: LA PLATA
  :state: PR
  :lat: 18.16
  :long: -66.23
00669:
  :zip: 00669
  :city: LARES
  :state: PR
  :lat: 18.29
  :long: -66.88
'00670':
  :zip: '00670'
  :city: LAS MARIAS
  :state: PR
  :lat: 18.27
  :long: -67.06
'00771':
  :zip: '00771'
  :city: LAS PIEDRAS
  :state: PR
  :lat: 18.18
  :long: -65.86
00931:
  :zip: 00931
  :city: SAN JUAN
  :state: PR
  :lat: 18.4
  :long: -66.06
00933:
  :zip: 00933
  :city: SAN JUAN
  :state: PR
  :lat: 18.4
  :long: -66.06
00934:
  :zip: 00934
  :city: FORT BUCHANAN
  :state: PR
  :lat: 18.41
  :long: -66.11
00935:
  :zip: 00935
  :city: SAN JUAN
  :state: PR
  :lat: 18.4
  :long: -66.06
00936:
  :zip: 00936
  :city: SAN JUAN
  :state: PR
  :lat: 18.4
  :long: -66.06
'00772':
  :zip: '00772'
  :city: LOIZA
  :state: PR
  :lat: 18.43
  :long: -65.88
'00773':
  :zip: '00773'
  :city: LUQUILLO
  :state: PR
  :lat: 18.37
  :long: -65.71
'00674':
  :zip: '00674'
  :city: MANATI
  :state: PR
  :lat: 18.43
  :long: -66.48
'00606':
  :zip: '00606'
  :city: MARICAO
  :state: PR
  :lat: 18.18
  :long: -66.98
'00707':
  :zip: '00707'
  :city: MAUNABO
  :state: PR
  :lat: 18.0
  :long: -65.9
'00636':
  :zip: '00636'
  :city: ROSARIO
  :state: PR
  :lat: 18.15
  :long: -67.06
00680:
  :zip: 00680
  :city: MAYAGUEZ
  :state: PR
  :lat: 18.2
  :long: -67.14
00681:
  :zip: 00681
  :city: MAYAGUEZ
  :state: PR
  :lat: 18.2
  :long: -67.14
00682:
  :zip: 00682
  :city: MAYAGUEZ
  :state: PR
  :lat: 18.2
  :long: -67.14
'00715':
  :zip: '00715'
  :city: MERCEDITA
  :state: PR
  :lat: 18.0
  :long: -66.56
'00676':
  :zip: '00676'
  :city: MOCA
  :state: PR
  :lat: 18.39
  :long: -67.11
00687:
  :zip: 00687
  :city: MOROVIS
  :state: PR
  :lat: 18.32
  :long: -66.4
00718:
  :zip: 00718
  :city: NAGUABO
  :state: PR
  :lat: 18.21
  :long: -65.73
00719:
  :zip: 00719
  :city: NARANJITO
  :state: PR
  :lat: 18.3
  :long: -66.24
'00720':
  :zip: '00720'
  :city: OROCOVIS
  :state: PR
  :lat: 18.22
  :long: -66.39
'00723':
  :zip: '00723'
  :city: PATILLAS
  :state: PR
  :lat: 18.0
  :long: -66.01
'00624':
  :zip: '00624'
  :city: PENUELAS
  :state: PR
  :lat: 18.06
  :long: -66.72
'00716':
  :zip: '00716'
  :city: PONCE
  :state: PR
  :lat: 17.98
  :long: -66.6
'00717':
  :zip: '00717'
  :city: PONCE
  :state: PR
  :lat: 17.98
  :long: -66.6
'00730':
  :zip: '00730'
  :city: PONCE
  :state: PR
  :lat: 17.98
  :long: -66.6
'00731':
  :zip: '00731'
  :city: PONCE
  :state: PR
  :lat: 17.98
  :long: -66.6
'00732':
  :zip: '00732'
  :city: PONCE
  :state: PR
  :lat: 17.98
  :long: -66.6
'00733':
  :zip: '00733'
  :city: PONCE
  :state: PR
  :lat: 17.98
  :long: -66.6
'00734':
  :zip: '00734'
  :city: PONCE
  :state: PR
  :lat: 17.98
  :long: -66.6
'00740':
  :zip: '00740'
  :city: PUERTO REAL
  :state: PR
  :lat: 18.33
  :long: -65.63
'00741':
  :zip: '00741'
  :city: PUNTA SANTIAGO
  :state: PR
  :lat: 18.15
  :long: -65.76
00678:
  :zip: 00678
  :city: QUEBRADILLAS
  :state: PR
  :lat: 18.47
  :long: -66.93
'00677':
  :zip: '00677'
  :city: RINCON
  :state: PR
  :lat: 18.34
  :long: -67.25
'00744':
  :zip: '00744'
  :city: RIO BLANCO
  :state: PR
  :lat: 18.22
  :long: -65.79
'00721':
  :zip: '00721'
  :city: PALMER
  :state: PR
  :lat: 18.37
  :long: -65.77
'00745':
  :zip: '00745'
  :city: RIO GRANDE
  :state: PR
  :lat: 18.38
  :long: -65.83
'00637':
  :zip: '00637'
  :city: SABANA GRANDE
  :state: PR
  :lat: 18.08
  :long: -66.96
00688:
  :zip: 00688
  :city: SABANA HOYOS
  :state: PR
  :lat: 18.38
  :long: -66.62
00952:
  :zip: 00952
  :city: SABANA SECA
  :state: PR
  :lat: 18.42
  :long: -66.19
'00751':
  :zip: '00751'
  :city: SALINAS
  :state: PR
  :lat: 17.97
  :long: -66.29
00690:
  :zip: 00690
  :city: SAN ANTONIO
  :state: PR
  :lat: 18.49
  :long: -67.09
00683:
  :zip: 00683
  :city: SAN GERMAN
  :state: PR
  :lat: 18.08
  :long: -67.04
00901:
  :zip: 00901
  :city: SAN JUAN
  :state: PR
  :lat: 18.4
  :long: -66.06
00902:
  :zip: 00902
  :city: SAN JUAN
  :state: PR
  :lat: 18.4
  :long: -66.06
00906:
  :zip: 00906
  :city: SAN JUAN
  :state: PR
  :lat: 18.4
  :long: -66.06
00907:
  :zip: 00907
  :city: SAN JUAN
  :state: PR
  :lat: 18.4
  :long: -66.06
00908:
  :zip: 00908
  :city: SAN JUAN
  :state: PR
  :lat: 18.4
  :long: -66.06
00909:
  :zip: 00909
  :city: SAN JUAN
  :state: PR
  :lat: 18.44
  :long: -66.06
00910:
  :zip: 00910
  :city: SAN JUAN
  :state: PR
  :lat: 18.4
  :long: -66.06
00911:
  :zip: 00911
  :city: SAN JUAN
  :state: PR
  :lat: 18.4
  :long: -66.06
00912:
  :zip: 00912
  :city: SAN JUAN
  :state: PR
  :lat: 18.4
  :long: -66.06
00913:
  :zip: 00913
  :city: SAN JUAN
  :state: PR
  :lat: 18.4
  :long: -66.06
00914:
  :zip: 00914
  :city: SAN JUAN
  :state: PR
  :lat: 18.4
  :long: -66.06
00915:
  :zip: 00915
  :city: SAN JUAN
  :state: PR
  :lat: 18.4
  :long: -66.06
00916:
  :zip: 00916
  :city: SAN JUAN
  :state: PR
  :lat: 18.4
  :long: -66.06
00917:
  :zip: 00917
  :city: SAN JUAN
  :state: PR
  :lat: 18.4
  :long: -66.06
00918:
  :zip: 00918
  :city: SAN JUAN
  :state: PR
  :lat: 18.4
  :long: -66.06
00919:
  :zip: 00919
  :city: SAN JUAN
  :state: PR
  :lat: 18.4
  :long: -66.06
00920:
  :zip: 00920
  :city: SAN JUAN
  :state: PR
  :lat: 18.4
  :long: -66.06
00921:
  :zip: 00921
  :city: SAN JUAN
  :state: PR
  :lat: 18.4
  :long: -66.06
00922:
  :zip: 00922
  :city: SAN JUAN
  :state: PR
  :lat: 18.4
  :long: -66.06
00923:
  :zip: 00923
  :city: SAN JUAN
  :state: PR
  :lat: 18.4
  :long: -66.06
00924:
  :zip: 00924
  :city: SAN JUAN
  :state: PR
  :lat: 18.4
  :long: -66.06
00925:
  :zip: 00925
  :city: SAN JUAN
  :state: PR
  :lat: 18.4
  :long: -66.06
00926:
  :zip: 00926
  :city: SAN JUAN
  :state: PR
  :lat: 18.4
  :long: -66.06
00927:
  :zip: 00927
  :city: SAN JUAN
  :state: PR
  :lat: 18.4
  :long: -66.06
00928:
  :zip: 00928
  :city: SAN JUAN
  :state: PR
  :lat: 18.4
  :long: -66.06
00929:
  :zip: 00929
  :city: SAN JUAN
  :state: PR
  :lat: 18.4
  :long: -66.06
00930:
  :zip: 00930
  :city: SAN JUAN
  :state: PR
  :lat: 18.4
  :long: -66.06
00937:
  :zip: 00937
  :city: SAN JUAN
  :state: PR
  :lat: 18.4
  :long: -66.06
00939:
  :zip: 00939
  :city: SAN JUAN
  :state: PR
  :lat: 18.4
  :long: -66.06
00940:
  :zip: 00940
  :city: SAN JUAN
  :state: PR
  :lat: 18.4
  :long: -66.06
00955:
  :zip: 00955
  :city: SAN JUAN
  :state: PR
  :lat: 18.4
  :long: -66.06
00956:
  :zip: 00956
  :city: BAYAMON
  :state: PR
  :lat: 18.28
  :long: -66.13
00957:
  :zip: 00957
  :city: BAYAMON
  :state: PR
  :lat: 18.28
  :long: -66.13
00958:
  :zip: 00958
  :city: BAYAMON
  :state: PR
  :lat: 18.28
  :long: -66.13
00959:
  :zip: 00959
  :city: BAYAMON
  :state: PR
  :lat: 18.28
  :long: -66.13
00801:
  :zip: 00801
  :city: ST THOMAS
  :state: VI
  :lat: 18.35
  :long: -64.93
00802:
  :zip: 00802
  :city: ST THOMAS
  :state: VI
  :lat: 18.35
  :long: -64.93
00803:
  :zip: 00803
  :city: ST THOMAS
  :state: VI
  :lat: 18.35
  :long: -64.93
00804:
  :zip: 00804
  :city: ST THOMAS
  :state: VI
  :lat: 18.35
  :long: -64.93
00805:
  :zip: 00805
  :city: ST THOMAS
  :state: VI
  :lat: 18.34
  :long: -64.93
00820:
  :zip: 00820
  :city: CHRISTIANSTED
  :state: VI
  :lat: 17.74
  :long: -64.7
00821:
  :zip: 00821
  :city: CHRISTIANSTED
  :state: VI
  :lat: 17.74
  :long: -64.7
00822:
  :zip: 00822
  :city: CHRISTIANSTED
  :state: VI
  :lat: 17.74
  :long: -64.7
00823:
  :zip: 00823
  :city: CHRISTIANSTED
  :state: VI
  :lat: 17.74
  :long: -64.7
00824:
  :zip: 00824
  :city: CHRISTIANSTED
  :state: VI
  :lat: 17.74
  :long: -64.7
00830:
  :zip: 00830
  :city: ST JOHN
  :state: VI
  :lat: 18.33
  :long: -64.79
00831:
  :zip: 00831
  :city: ST JOHN
  :state: VI
  :lat: 18.33
  :long: -64.79
00840:
  :zip: 00840
  :city: FREDERIKSTED
  :state: VI
  :lat: 17.71
  :long: -64.88
00841:
  :zip: 00841
  :city: FREDERIKSTED
  :state: VI
  :lat: 17.71
  :long: -64.88
00850:
  :zip: 00850
  :city: KINGSHILL
  :state: VI
  :lat: 17.76
  :long: -64.82
00851:
  :zip: 00851
  :city: KINGSHILL
  :state: VI
  :lat: 17.73
  :long: -64.8
02478:
  :zip: 02478
  :city: BELMONT
  :state: MA
  :lat: 42.39
  :long: -71.18
02479:
  :zip: 02479
  :city: WAVERLEY
  :state: MA
  :lat: 42.39
  :long: -71.17
'02445':
  :zip: '02445'
  :city: BROOKLINE
  :state: MA
  :lat: 42.32
  :long: -71.14
'02446':
  :zip: '02446'
  :city: BROOKLINE
  :state: MA
  :lat: 42.32
  :long: -71.14
'02447':
  :zip: '02447'
  :city: BROOKLINE VILLAGE
  :state: MA
  :lat: 42.33
  :long: -71.13
'02420':
  :zip: '02420'
  :city: LEXINGTON
  :state: MA
  :lat: 42.44
  :long: -71.23
'02421':
  :zip: '02421'
  :city: LEXINGTON
  :state: MA
  :lat: 42.44
  :long: -71.23
02492:
  :zip: 02492
  :city: NEEDHAM
  :state: MA
  :lat: 42.28
  :long: -71.24
02494:
  :zip: 02494
  :city: NEEDHAM HEIGHTS
  :state: MA
  :lat: 42.28
  :long: -71.24
'02456':
  :zip: '02456'
  :city: NEW TOWN
  :state: MA
  :lat: 42.33
  :long: -71.2
02458:
  :zip: 02458
  :city: NEWTON
  :state: MA
  :lat: 42.33
  :long: -71.2
02459:
  :zip: 02459
  :city: NEWTON CENTER
  :state: MA
  :lat: 42.31
  :long: -71.19
'02460':
  :zip: '02460'
  :city: NEWTONVILLE
  :state: MA
  :lat: 42.35
  :long: -71.2
'02461':
  :zip: '02461'
  :city: NEWTON HIGHLANDS
  :state: MA
  :lat: 42.31
  :long: -71.2
'02462':
  :zip: '02462'
  :city: NEWTON LOWER FALLS
  :state: MA
  :lat: 42.33
  :long: -71.25
'02464':
  :zip: '02464'
  :city: NEWTON UPPER FALLS
  :state: MA
  :lat: 42.31
  :long: -71.22
'02465':
  :zip: '02465'
  :city: WEST NEWTON
  :state: MA
  :lat: 42.35
  :long: -71.22
'02466':
  :zip: '02466'
  :city: AUBURNDALE
  :state: MA
  :lat: 42.34
  :long: -71.24
00960:
  :zip: 00960
  :city: BAYAMON
  :state: PR
  :lat: 18.28
  :long: -66.13
00961:
  :zip: 00961
  :city: BAYAMON
  :state: PR
  :lat: 18.41
  :long: -66.15
00962:
  :zip: 00962
  :city: CATANO
  :state: PR
  :lat: 18.43
  :long: -66.11
00963:
  :zip: 00963
  :city: CATANO
  :state: PR
  :lat: 18.43
  :long: -66.11
00975:
  :zip: 00975
  :city: SAN JUAN
  :state: PR
  :lat: 18.4
  :long: -66.06
00976:
  :zip: 00976
  :city: TRUJILLO ALTO
  :state: PR
  :lat: 18.36
  :long: -66.01
00977:
  :zip: 00977
  :city: TRUJILLO ALTO
  :state: PR
  :lat: 18.36
  :long: -66.01
00978:
  :zip: 00978
  :city: SAINT JUST
  :state: PR
  :lat: 18.37
  :long: -66.01
'00754':
  :zip: '00754'
  :city: SAN LORENZO
  :state: PR
  :lat: 18.19
  :long: -65.96
00685:
  :zip: 00685
  :city: SAN SEBASTIAN
  :state: PR
  :lat: 18.33
  :long: -66.99
'00757':
  :zip: '00757'
  :city: SANTA ISABEL
  :state: PR
  :lat: 17.97
  :long: -66.4
00953:
  :zip: 00953
  :city: TOA ALTA
  :state: PR
  :lat: 18.39
  :long: -66.25
00954:
  :zip: 00954
  :city: TOA ALTA
  :state: PR
  :lat: 18.39
  :long: -66.25
00949:
  :zip: 00949
  :city: TOA BAJA
  :state: PR
  :lat: 18.44
  :long: -66.25
00950:
  :zip: 00950
  :city: TOA BAJA
  :state: PR
  :lat: 18.44
  :long: -66.25
00951:
  :zip: 00951
  :city: TOA BAJA
  :state: PR
  :lat: 18.44
  :long: -66.25
'00641':
  :zip: '00641'
  :city: UTUADO
  :state: PR
  :lat: 18.27
  :long: -66.7
00692:
  :zip: 00692
  :city: VEGA ALTA
  :state: PR
  :lat: 18.41
  :long: -66.32
00693:
  :zip: 00693
  :city: VEGA BAJA
  :state: PR
  :lat: 18.44
  :long: -66.39
00694:
  :zip: 00694
  :city: VEGA BAJA
  :state: PR
  :lat: 18.44
  :long: -66.39
'00765':
  :zip: '00765'
  :city: VIEQUES
  :state: PR
  :lat: 18.42
  :long: -65.83
'00766':
  :zip: '00766'
  :city: VILLALBA
  :state: PR
  :lat: 18.13
  :long: -66.48
'00767':
  :zip: '00767'
  :city: YABUCOA
  :state: PR
  :lat: 18.04
  :long: -65.87
00698:
  :zip: 00698
  :city: YAUCO
  :state: PR
  :lat: 18.03
  :long: -66.86
'02467':
  :zip: '02467'
  :city: CHESTNUT HILL
  :state: MA
  :lat: 42.31
  :long: -71.16
02468:
  :zip: 02468
  :city: WABAN
  :state: MA
  :lat: 42.32
  :long: -71.23
02495:
  :zip: 02495
  :city: NONANTUM
  :state: MA
  :lat: 42.33
  :long: -71.2
'02451':
  :zip: '02451'
  :city: WALTHAM
  :state: MA
  :lat: 42.38
  :long: -71.24
'02452':
  :zip: '02452'
  :city: WALTHAM
  :state: MA
  :lat: 42.38
  :long: -71.24
'02453':
  :zip: '02453'
  :city: WALTHAM
  :state: MA
  :lat: 42.38
  :long: -71.24
'02454':
  :zip: '02454'
  :city: WALTHAM
  :state: MA
  :lat: 42.38
  :long: -71.24
'02455':
  :zip: '02455'
  :city: NORTH WALTHAM
  :state: MA
  :lat: 42.39
  :long: -71.22
'02471':
  :zip: '02471'
  :city: WATERTOWN
  :state: MA
  :lat: 42.36
  :long: -71.17
'02472':
  :zip: '02472'
  :city: WATERTOWN
  :state: MA
  :lat: 42.36
  :long: -71.17
'02477':
  :zip: '02477'
  :city: WATERTOWN
  :state: MA
  :lat: 42.36
  :long: -71.17
'02457':
  :zip: '02457'
  :city: BABSON PARK
  :state: MA
  :lat: 42.29
  :long: -71.26
02481:
  :zip: 02481
  :city: WELLESLEY HILLS
  :state: MA
  :lat: 42.31
  :long: -71.27
02482:
  :zip: 02482
  :city: WELLESLEY
  :state: MA
  :lat: 42.3
  :long: -71.28
02493:
  :zip: 02493
  :city: WESTON
  :state: MA
  :lat: 42.36
  :long: -71.26
02184:
  :zip: 02184
  :city: BRAINTREE
  :state: MA
  :lat: 42.2
  :long: -71.0
02185:
  :zip: 02185
  :city: BRAINTREE
  :state: MA
  :lat: 42.2
  :long: -71.0
02186:
  :zip: 02186
  :city: MILTON
  :state: MA
  :lat: 42.24
  :long: -71.08
02187:
  :zip: 02187
  :city: MILTON VILLAGE
  :state: MA
  :lat: 42.26
  :long: -71.08
02169:
  :zip: 02169
  :city: QUINCY
  :state: MA
  :lat: 42.26
  :long: -71.0
'02170':
  :zip: '02170'
  :city: QUINCY
  :state: MA
  :lat: 42.26
  :long: -71.0
'02171':
  :zip: '02171'
  :city: QUINCY
  :state: MA
  :lat: 42.26
  :long: -71.0
02269:
  :zip: 02269
  :city: QUINCY
  :state: MA
  :lat: 42.26
  :long: -71.0
02188:
  :zip: 02188
  :city: WEYMOUTH
  :state: MA
  :lat: 42.2
  :long: -70.94
02189:
  :zip: 02189
  :city: EAST WEYMOUTH
  :state: MA
  :lat: 42.2
  :long: -70.94
02190:
  :zip: 02190
  :city: SOUTH WEYMOUTH
  :state: MA
  :lat: 42.2
  :long: -70.94
02191:
  :zip: 02191
  :city: NORTH WEYMOUTH
  :state: MA
  :lat: 42.2
  :long: -70.94
01718:
  :zip: 01718
  :city: VILLAGE OF NAGOG WOODS
  :state: MA
  :lat: 42.51
  :long: -71.41
01719:
  :zip: 01719
  :city: BOXBOROUGH
  :state: MA
  :lat: 42.5
  :long: -71.5
'01720':
  :zip: '01720'
  :city: ACTON
  :state: MA
  :lat: 42.48
  :long: -71.46
'02474':
  :zip: '02474'
  :city: ARLINGTON
  :state: MA
  :lat: 42.41
  :long: -71.16
'02475':
  :zip: '02475'
  :city: ARLINGTON HEIGHTS
  :state: MA
  :lat: 42.41
  :long: -71.18
'02476':
  :zip: '02476'
  :city: ARLINGTON
  :state: MA
  :lat: 42.41
  :long: -71.16
'02150':
  :zip: '02150'
  :city: CHELSEA
  :state: MA
  :lat: 42.39
  :long: -71.03
02149:
  :zip: 02149
  :city: EVERETT
  :state: MA
  :lat: 42.4
  :long: -71.05
'02152':
  :zip: '02152'
  :city: WINTHROP
  :state: MA
  :lat: 42.37
  :long: -70.98
'02151':
  :zip: '02151'
  :city: REVERE
  :state: MA
  :lat: 42.41
  :long: -70.99
02148:
  :zip: 02148
  :city: MALDEN
  :state: MA
  :lat: 42.43
  :long: -71.05
'02176':
  :zip: '02176'
  :city: MELROSE
  :state: MA
  :lat: 42.45
  :long: -71.05
'02153':
  :zip: '02153'
  :city: MEDFORD
  :state: MA
  :lat: 42.42
  :long: -71.1
'02155':
  :zip: '02155'
  :city: MEDFORD
  :state: MA
  :lat: 42.42
  :long: -71.1
'02156':
  :zip: '02156'
  :city: WEST MEDFORD
  :state: MA
  :lat: 42.42
  :long: -71.13
'02143':
  :zip: '02143'
  :city: SOMERVILLE
  :state: MA
  :lat: 42.39
  :long: -71.1
'02144':
  :zip: '02144'
  :city: SOMERVILLE
  :state: MA
  :lat: 42.39
  :long: -71.1
'02145':
  :zip: '02145'
  :city: SOMERVILLE
  :state: MA
  :lat: 42.39
  :long: -71.1
02180:
  :zip: 02180
  :city: STONEHAM
  :state: MA
  :lat: 42.47
  :long: -71.09
01913:
  :zip: 01913
  :city: AMESBURY
  :state: MA
  :lat: 42.85
  :long: -70.92
01810:
  :zip: 01810
  :city: ANDOVER
  :state: MA
  :lat: 42.65
  :long: -71.14
01812:
  :zip: 01812
  :city: ANDOVER
  :state: MA
  :lat: 42.65
  :long: -71.14
01899:
  :zip: 01899
  :city: ANDOVER
  :state: MA
  :lat: 42.65
  :long: -71.14
'05501':
  :zip: '05501'
  :city: ANDOVER
  :state: MA
  :lat: 42.65
  :long: -71.14
01586:
  :zip: 01586
  :city: WEST MILLBURY
  :state: MA
  :lat: 42.19
  :long: -71.76
'02054':
  :zip: '02054'
  :city: MILLIS
  :state: MA
  :lat: 42.16
  :long: -71.35
01529:
  :zip: 01529
  :city: MILLVILLE
  :state: MA
  :lat: 42.03
  :long: -71.58
'02350':
  :zip: '02350'
  :city: MONPONSETT
  :state: MA
  :lat: 42.02
  :long: -70.84
'02553':
  :zip: '02553'
  :city: MONUMENT BEACH
  :state: MA
  :lat: 41.71
  :long: -70.6
'02554':
  :zip: '02554'
  :city: NANTUCKET
  :state: MA
  :lat: 41.27
  :long: -70.1
'02564':
  :zip: '02564'
  :city: SIASCONSET
  :state: MA
  :lat: 41.27
  :long: -70.0
02584:
  :zip: 02584
  :city: NANTUCKET
  :state: MA
  :lat: 41.27
  :long: -70.1
'01760':
  :zip: '01760'
  :city: NATICK
  :state: MA
  :lat: 42.28
  :long: -71.35
'01531':
  :zip: '01531'
  :city: NEW BRAINTREE
  :state: MA
  :lat: 42.31
  :long: -72.13
01950:
  :zip: 01950
  :city: NEWBURYPORT
  :state: MA
  :lat: 42.81
  :long: -70.88
01951:
  :zip: 01951
  :city: NEWBURY
  :state: MA
  :lat: 42.8
  :long: -71.0
01952:
  :zip: 01952
  :city: SALISBURY
  :state: MA
  :lat: 42.83
  :long: -70.84
'02056':
  :zip: '02056'
  :city: NORFOLK
  :state: MA
  :lat: 42.11
  :long: -71.31
'02351':
  :zip: '02351'
  :city: ABINGTON
  :state: MA
  :lat: 42.11
  :long: -70.95
01862:
  :zip: 01862
  :city: NORTH BILLERICA
  :state: MA
  :lat: 42.57
  :long: -71.29
'01532':
  :zip: '01532'
  :city: NORTHBOROUGH
  :state: MA
  :lat: 42.31
  :long: -71.64
'01534':
  :zip: '01534'
  :city: NORTHBRIDGE
  :state: MA
  :lat: 42.15
  :long: -71.65
'01535':
  :zip: '01535'
  :city: NORTH BROOKFIELD
  :state: MA
  :lat: 42.27
  :long: -72.08
'02355':
  :zip: '02355'
  :city: NORTH CARVER
  :state: MA
  :lat: 41.91
  :long: -70.79
'02650':
  :zip: '02650'
  :city: NORTH CHATHAM
  :state: MA
  :lat: 41.7
  :long: -69.95
01863:
  :zip: 01863
  :city: NORTH CHELMSFORD
  :state: MA
  :lat: 42.63
  :long: -71.39
'02651':
  :zip: '02651'
  :city: NORTH EASTHAM
  :state: MA
  :lat: 41.84
  :long: -69.97
'02356':
  :zip: '02356'
  :city: NORTH EASTON
  :state: MA
  :lat: 42.05
  :long: -71.1
'02357':
  :zip: '02357'
  :city: NORTH EASTON
  :state: MA
  :lat: 42.05
  :long: -71.1
'02556':
  :zip: '02556'
  :city: NORTH FALMOUTH
  :state: MA
  :lat: 41.64
  :long: -70.63
'02565':
  :zip: '02565'
  :city: SILVER BEACH
  :state: MA
  :lat: 41.63
  :long: -70.64
'01536':
  :zip: '01536'
  :city: NORTH GRAFTON
  :state: MA
  :lat: 42.23
  :long: -71.69
02059:
  :zip: 02059
  :city: NORTH MARSHFIELD
  :state: MA
  :lat: 42.1
  :long: -70.71
'01537':
  :zip: '01537'
  :city: NORTH OXFORD
  :state: MA
  :lat: 42.16
  :long: -71.88
02358:
  :zip: 02358
  :city: NORTH PEMBROKE
  :state: MA
  :lat: 42.09
  :long: -70.78
01864:
  :zip: 01864
  :city: NORTH READING
  :state: MA
  :lat: 42.56
  :long: -71.06
01889:
  :zip: 01889
  :city: NORTH READING
  :state: MA
  :lat: 42.56
  :long: -71.06
'05544':
  :zip: '05544'
  :city: ANDOVER
  :state: MA
  :lat: 42.65
  :long: -71.14
'01430':
  :zip: '01430'
  :city: ASHBURNHAM
  :state: MA
  :lat: 42.63
  :long: -71.9
'01431':
  :zip: '01431'
  :city: ASHBY
  :state: MA
  :lat: 42.68
  :long: -71.81
'01721':
  :zip: '01721'
  :city: ASHLAND
  :state: MA
  :lat: 42.25
  :long: -71.46
'01501':
  :zip: '01501'
  :city: AUBURN
  :state: MA
  :lat: 42.2
  :long: -71.83
'02322':
  :zip: '02322'
  :city: AVON
  :state: MA
  :lat: 42.11
  :long: -71.03
'01432':
  :zip: '01432'
  :city: AYER
  :state: MA
  :lat: 42.56
  :long: -71.58
'01434':
  :zip: '01434'
  :city: DEVENS
  :state: MA
  :lat: 42.53
  :long: -71.61
'01436':
  :zip: '01436'
  :city: BALDWINVILLE
  :state: MA
  :lat: 42.6
  :long: -72.07
'02630':
  :zip: '02630'
  :city: BARNSTABLE
  :state: MA
  :lat: 41.7
  :long: -70.3
'01730':
  :zip: '01730'
  :city: BEDFORD
  :state: MA
  :lat: 42.48
  :long: -71.26
'01731':
  :zip: '01731'
  :city: HANSCOM AFB
  :state: MA
  :lat: 42.46
  :long: -71.28
02019:
  :zip: 02019
  :city: BELLINGHAM
  :state: MA
  :lat: 42.09
  :long: -71.47
'01503':
  :zip: '01503'
  :city: BERLIN
  :state: MA
  :lat: 42.38
  :long: -71.63
01915:
  :zip: 01915
  :city: BEVERLY
  :state: MA
  :lat: 42.55
  :long: -70.84
01821:
  :zip: 01821
  :city: BILLERICA
  :state: MA
  :lat: 42.55
  :long: -71.26
01822:
  :zip: 01822
  :city: BILLERICA
  :state: MA
  :lat: 42.55
  :long: -71.26
'01504':
  :zip: '01504'
  :city: BLACKSTONE
  :state: MA
  :lat: 42.01
  :long: -71.5
'01740':
  :zip: '01740'
  :city: BOLTON
  :state: MA
  :lat: 42.43
  :long: -71.6
02108:
  :zip: 02108
  :city: BOSTON
  :state: MA
  :lat: 42.35
  :long: -71.06
02109:
  :zip: 02109
  :city: BOSTON
  :state: MA
  :lat: 42.35
  :long: -71.06
'02110':
  :zip: '02110'
  :city: BOSTON
  :state: MA
  :lat: 42.35
  :long: -71.06
'02111':
  :zip: '02111'
  :city: BOSTON
  :state: MA
  :lat: 42.35
  :long: -71.06
'02112':
  :zip: '02112'
  :city: BOSTON
  :state: MA
  :lat: 42.35
  :long: -71.06
'02113':
  :zip: '02113'
  :city: BOSTON
  :state: MA
  :lat: 42.35
  :long: -71.06
'02114':
  :zip: '02114'
  :city: BOSTON
  :state: MA
  :lat: 42.35
  :long: -71.06
'02115':
  :zip: '02115'
  :city: BOSTON
  :state: MA
  :lat: 42.35
  :long: -71.06
'02116':
  :zip: '02116'
  :city: BOSTON
  :state: MA
  :lat: 42.35
  :long: -71.06
'02117':
  :zip: '02117'
  :city: BOSTON
  :state: MA
  :lat: 42.35
  :long: -71.06
02118:
  :zip: 02118
  :city: BOSTON
  :state: MA
  :lat: 42.35
  :long: -71.06
02119:
  :zip: 02119
  :city: ROXBURY
  :state: MA
  :lat: 42.35
  :long: -71.06
'02120':
  :zip: '02120'
  :city: ROXBURY CROSSING
  :state: MA
  :lat: 42.35
  :long: -71.06
'02121':
  :zip: '02121'
  :city: DORCHESTER
  :state: MA
  :lat: 42.35
  :long: -71.06
'02122':
  :zip: '02122'
  :city: DORCHESTER
  :state: MA
  :lat: 42.35
  :long: -71.06
'02123':
  :zip: '02123'
  :city: BOSTON
  :state: MA
  :lat: 42.35
  :long: -71.06
'02124':
  :zip: '02124'
  :city: DORCHESTER CENTER
  :state: MA
  :lat: 42.35
  :long: -71.06
'02125':
  :zip: '02125'
  :city: DORCHESTER
  :state: MA
  :lat: 42.35
  :long: -71.06
'02126':
  :zip: '02126'
  :city: MATTAPAN
  :state: MA
  :lat: 42.26
  :long: -71.1
'02127':
  :zip: '02127'
  :city: BOSTON
  :state: MA
  :lat: 42.35
  :long: -71.06
02128:
  :zip: 02128
  :city: BOSTON
  :state: MA
  :lat: 42.35
  :long: -71.06
02129:
  :zip: 02129
  :city: CHARLESTOWN
  :state: MA
  :lat: 42.38
  :long: -71.06
'02130':
  :zip: '02130'
  :city: JAMAICA PLAIN
  :state: MA
  :lat: 42.3
  :long: -71.11
'02131':
  :zip: '02131'
  :city: ROSLINDALE
  :state: MA
  :lat: 42.28
  :long: -71.13
'02132':
  :zip: '02132'
  :city: WEST ROXBURY
  :state: MA
  :lat: 42.28
  :long: -71.16
'02133':
  :zip: '02133'
  :city: BOSTON
  :state: MA
  :lat: 42.35
  :long: -71.06
'02134':
  :zip: '02134'
  :city: ALLSTON
  :state: MA
  :lat: 42.35
  :long: -71.13
'02135':
  :zip: '02135'
  :city: BRIGHTON
  :state: MA
  :lat: 42.35
  :long: -71.15
'02136':
  :zip: '02136'
  :city: HYDE PARK
  :state: MA
  :lat: 42.26
  :long: -71.11
'02137':
  :zip: '02137'
  :city: READVILLE
  :state: MA
  :lat: 42.25
  :long: -71.12
'02163':
  :zip: '02163'
  :city: BOSTON
  :state: MA
  :lat: 42.35
  :long: -71.06
02196:
  :zip: 02196
  :city: BOSTON
  :state: MA
  :lat: 42.35
  :long: -71.06
02199:
  :zip: 02199
  :city: BOSTON
  :state: MA
  :lat: 42.35
  :long: -71.06
'02201':
  :zip: '02201'
  :city: BOSTON
  :state: MA
  :lat: 42.35
  :long: -71.06
'02203':
  :zip: '02203'
  :city: BOSTON
  :state: MA
  :lat: 42.35
  :long: -71.06
'02204':
  :zip: '02204'
  :city: BOSTON
  :state: MA
  :lat: 42.35
  :long: -71.06
'02205':
  :zip: '02205'
  :city: BOSTON
  :state: MA
  :lat: 42.35
  :long: -71.06
'02206':
  :zip: '02206'
  :city: BOSTON
  :state: MA
  :lat: 42.35
  :long: -71.06
'02210':
  :zip: '02210'
  :city: BOSTON
  :state: MA
  :lat: 42.35
  :long: -71.06
'02211':
  :zip: '02211'
  :city: BOSTON
  :state: MA
  :lat: 42.35
  :long: -71.06
'02212':
  :zip: '02212'
  :city: BOSTON
  :state: MA
  :lat: 42.35
  :long: -71.06
'02215':
  :zip: '02215'
  :city: BOSTON
  :state: MA
  :lat: 42.35
  :long: -71.06
'02217':
  :zip: '02217'
  :city: BOSTON
  :state: MA
  :lat: 42.35
  :long: -71.06
'02222':
  :zip: '02222'
  :city: BOSTON
  :state: MA
  :lat: 42.35
  :long: -71.06
02228:
  :zip: 02228
  :city: EAST BOSTON
  :state: MA
  :lat: 42.35
  :long: -71.06
'02241':
  :zip: '02241'
  :city: BOSTON
  :state: MA
  :lat: 42.35
  :long: -71.06
'02266':
  :zip: '02266'
  :city: BOSTON
  :state: MA
  :lat: 42.35
  :long: -71.06
02283:
  :zip: 02283
  :city: BOSTON
  :state: MA
  :lat: 42.35
  :long: -71.06
02284:
  :zip: 02284
  :city: BOSTON
  :state: MA
  :lat: 42.35
  :long: -71.06
02293:
  :zip: 02293
  :city: BOSTON
  :state: MA
  :lat: 42.35
  :long: -71.06
02295:
  :zip: 02295
  :city: BOSTON
  :state: MA
  :lat: 42.35
  :long: -71.06
02297:
  :zip: 02297
  :city: BOSTON
  :state: MA
  :lat: 42.35
  :long: -71.06
02298:
  :zip: 02298
  :city: BOSTON
  :state: MA
  :lat: 42.34
  :long: -71.05
01921:
  :zip: 01921
  :city: BOXFORD
  :state: MA
  :lat: 42.67
  :long: -70.98
'01505':
  :zip: '01505'
  :city: BOYLSTON
  :state: MA
  :lat: 42.35
  :long: -71.73
'02020':
  :zip: '02020'
  :city: BRANT ROCK
  :state: MA
  :lat: 42.08
  :long: -70.64
'02631':
  :zip: '02631'
  :city: BREWSTER
  :state: MA
  :lat: 41.76
  :long: -70.08
'02324':
  :zip: '02324'
  :city: BRIDGEWATER
  :state: MA
  :lat: 41.98
  :long: -70.97
'02325':
  :zip: '02325'
  :city: BRIDGEWATER
  :state: MA
  :lat: 41.98
  :long: -70.97
'02301':
  :zip: '02301'
  :city: BROCKTON
  :state: MA
  :lat: 42.08
  :long: -71.02
'02302':
  :zip: '02302'
  :city: BROCKTON
  :state: MA
  :lat: 42.08
  :long: -71.02
'02303':
  :zip: '02303'
  :city: BROCKTON
  :state: MA
  :lat: 42.08
  :long: -71.02
'02304':
  :zip: '02304'
  :city: BROCKTON
  :state: MA
  :lat: 42.08
  :long: -71.02
'02305':
  :zip: '02305'
  :city: BROCKTON
  :state: MA
  :lat: 42.08
  :long: -71.02
'01506':
  :zip: '01506'
  :city: BROOKFIELD
  :state: MA
  :lat: 42.21
  :long: -72.1
'02327':
  :zip: '02327'
  :city: BRYANTVILLE
  :state: MA
  :lat: 42.06
  :long: -70.8
01803:
  :zip: 01803
  :city: BURLINGTON
  :state: MA
  :lat: 42.5
  :long: -71.2
01805:
  :zip: 01805
  :city: BURLINGTON
  :state: MA
  :lat: 42.5
  :long: -71.2
'02532':
  :zip: '02532'
  :city: BUZZARDS BAY
  :state: MA
  :lat: 41.75
  :long: -70.61
'02542':
  :zip: '02542'
  :city: BUZZARDS BAY
  :state: MA
  :lat: 41.75
  :long: -70.61
01922:
  :zip: 01922
  :city: BYFIELD
  :state: MA
  :lat: 42.75
  :long: -70.93
02138:
  :zip: 02138
  :city: CAMBRIDGE
  :state: MA
  :lat: 42.37
  :long: -71.11
02139:
  :zip: 02139
  :city: CAMBRIDGE
  :state: MA
  :lat: 42.37
  :long: -71.11
'02140':
  :zip: '02140'
  :city: CAMBRIDGE
  :state: MA
  :lat: 42.37
  :long: -71.11
'02141':
  :zip: '02141'
  :city: CAMBRIDGE
  :state: MA
  :lat: 42.37
  :long: -71.11
'02142':
  :zip: '02142'
  :city: CAMBRIDGE
  :state: MA
  :lat: 42.37
  :long: -71.11
02238:
  :zip: 02238
  :city: CAMBRIDGE
  :state: MA
  :lat: 42.37
  :long: -71.11
'02021':
  :zip: '02021'
  :city: CANTON
  :state: MA
  :lat: 42.15
  :long: -71.13
'01741':
  :zip: '01741'
  :city: CARLISLE
  :state: MA
  :lat: 42.53
  :long: -71.35
'02330':
  :zip: '02330'
  :city: CARVER
  :state: MA
  :lat: 41.88
  :long: -70.76
'02534':
  :zip: '02534'
  :city: CATAUMET
  :state: MA
  :lat: 41.66
  :long: -70.61
'02632':
  :zip: '02632'
  :city: CENTERVILLE
  :state: MA
  :lat: 41.66
  :long: -70.34
'02634':
  :zip: '02634'
  :city: CENTERVILLE
  :state: MA
  :lat: 41.66
  :long: -70.34
'01507':
  :zip: '01507'
  :city: CHARLTON
  :state: MA
  :lat: 42.13
  :long: -71.96
01509:
  :zip: 01509
  :city: CHARLTON DEPOT
  :state: MA
  :lat: 42.13
  :long: -71.96
01508:
  :zip: 01508
  :city: CHARLTON CITY
  :state: MA
  :lat: 42.13
  :long: -71.96
'02633':
  :zip: '02633'
  :city: CHATHAM
  :state: MA
  :lat: 41.67
  :long: -69.96
01824:
  :zip: 01824
  :city: CHELMSFORD
  :state: MA
  :lat: 42.59
  :long: -71.36
'02535':
  :zip: '02535'
  :city: CHILMARK
  :state: MA
  :lat: 41.34
  :long: -70.74
'02552':
  :zip: '02552'
  :city: MENEMSHA
  :state: MA
  :lat: 41.34
  :long: -70.73
'01510':
  :zip: '01510'
  :city: CLINTON
  :state: MA
  :lat: 42.41
  :long: -71.68
'02025':
  :zip: '02025'
  :city: COHASSET
  :state: MA
  :lat: 42.23
  :long: -70.8
'01742':
  :zip: '01742'
  :city: CONCORD
  :state: MA
  :lat: 42.45
  :long: -71.35
'02635':
  :zip: '02635'
  :city: COTUIT
  :state: MA
  :lat: 41.62
  :long: -70.44
'02652':
  :zip: '02652'
  :city: NORTH TRURO
  :state: MA
  :lat: 42.04
  :long: -70.09
01538:
  :zip: 01538
  :city: NORTH UXBRIDGE
  :state: MA
  :lat: 42.05
  :long: -71.64
'02061':
  :zip: '02061'
  :city: NORWELL
  :state: MA
  :lat: 42.16
  :long: -70.78
'02062':
  :zip: '02062'
  :city: NORWOOD
  :state: MA
  :lat: 42.18
  :long: -71.19
01865:
  :zip: 01865
  :city: NUTTING LAKE
  :state: MA
  :lat: 42.54
  :long: -71.25
'02557':
  :zip: '02557'
  :city: OAK BLUFFS
  :state: MA
  :lat: 41.45
  :long: -70.56
02558:
  :zip: 02558
  :city: ONSET
  :state: MA
  :lat: 41.74
  :long: -70.66
'02653':
  :zip: '02653'
  :city: ORLEANS
  :state: MA
  :lat: 41.79
  :long: -70.0
'02655':
  :zip: '02655'
  :city: OSTERVILLE
  :state: MA
  :lat: 41.62
  :long: -70.38
'01540':
  :zip: '01540'
  :city: OXFORD
  :state: MA
  :lat: 42.11
  :long: -71.87
01960:
  :zip: 01960
  :city: PEABODY
  :state: MA
  :lat: 42.53
  :long: -70.97
01961:
  :zip: 01961
  :city: PEABODY
  :state: MA
  :lat: 42.53
  :long: -70.97
02359:
  :zip: 02359
  :city: PEMBROKE
  :state: MA
  :lat: 42.06
  :long: -70.8
'01463':
  :zip: '01463'
  :city: PEPPERELL
  :state: MA
  :lat: 42.66
  :long: -71.58
01866:
  :zip: 01866
  :city: PINEHURST
  :state: MA
  :lat: 42.53
  :long: -71.23
'02360':
  :zip: '02360'
  :city: PLYMOUTH
  :state: MA
  :lat: 41.95
  :long: -70.66
'02361':
  :zip: '02361'
  :city: PLYMOUTH
  :state: MA
  :lat: 41.95
  :long: -70.66
'02362':
  :zip: '02362'
  :city: PLYMOUTH
  :state: MA
  :lat: 41.95
  :long: -70.66
'02367':
  :zip: '02367'
  :city: PLYMPTON
  :state: MA
  :lat: 41.95
  :long: -70.81
02559:
  :zip: 02559
  :city: POCASSET
  :state: MA
  :lat: 41.69
  :long: -70.63
01965:
  :zip: 01965
  :city: PRIDES CROSSING
  :state: MA
  :lat: 42.56
  :long: -70.86
'01541':
  :zip: '01541'
  :city: PRINCETON
  :state: MA
  :lat: 42.45
  :long: -71.86
'02657':
  :zip: '02657'
  :city: PROVINCETOWN
  :state: MA
  :lat: 42.06
  :long: -70.2
02368:
  :zip: 02368
  :city: RANDOLPH
  :state: MA
  :lat: 42.17
  :long: -71.05
01867:
  :zip: 01867
  :city: READING
  :state: MA
  :lat: 42.53
  :long: -71.1
'01542':
  :zip: '01542'
  :city: ROCHDALE
  :state: MA
  :lat: 42.2
  :long: -71.9
'02370':
  :zip: '02370'
  :city: ROCKLAND
  :state: MA
  :lat: 42.13
  :long: -70.91
01966:
  :zip: 01966
  :city: ROCKPORT
  :state: MA
  :lat: 42.64
  :long: -70.61
01969:
  :zip: 01969
  :city: ROWLEY
  :state: MA
  :lat: 42.71
  :long: -70.87
'01543':
  :zip: '01543'
  :city: RUTLAND
  :state: MA
  :lat: 42.36
  :long: -71.95
'02561':
  :zip: '02561'
  :city: SAGAMORE
  :state: MA
  :lat: 41.78
  :long: -70.53
'02562':
  :zip: '02562'
  :city: SAGAMORE BEACH
  :state: MA
  :lat: 41.79
  :long: -70.53
01970:
  :zip: 01970
  :city: SALEM
  :state: MA
  :lat: 42.51
  :long: -70.9
01971:
  :zip: 01971
  :city: SALEM
  :state: MA
  :lat: 42.51
  :long: -70.89
'02563':
  :zip: '02563'
  :city: SANDWICH
  :state: MA
  :lat: 41.75
  :long: -70.49
'02040':
  :zip: '02040'
  :city: GREENBUSH
  :state: MA
  :lat: 42.19
  :long: -70.76
'02055':
  :zip: '02055'
  :city: MINOT
  :state: MA
  :lat: 42.19
  :long: -70.76
'02060':
  :zip: '02060'
  :city: NORTH SCITUATE
  :state: MA
  :lat: 42.21
  :long: -70.76
'02066':
  :zip: '02066'
  :city: SCITUATE
  :state: MA
  :lat: 42.18
  :long: -70.73
'02067':
  :zip: '02067'
  :city: SHARON
  :state: MA
  :lat: 42.11
  :long: -71.18
'02070':
  :zip: '02070'
  :city: SHELDONVILLE
  :state: MA
  :lat: 42.05
  :long: -71.35
'01770':
  :zip: '01770'
  :city: SHERBORN
  :state: MA
  :lat: 42.23
  :long: -71.36
'01464':
  :zip: '01464'
  :city: SHIRLEY
  :state: MA
  :lat: 42.54
  :long: -71.65
'01545':
  :zip: '01545'
  :city: SHREWSBURY
  :state: MA
  :lat: 42.3
  :long: -71.71
'01546':
  :zip: '01546'
  :city: SHREWSBURY
  :state: MA
  :lat: 42.3
  :long: -71.71
'01745':
  :zip: '01745'
  :city: FAYVILLE
  :state: MA
  :lat: 42.29
  :long: -71.5
'01772':
  :zip: '01772'
  :city: SOUTHBOROUGH
  :state: MA
  :lat: 42.3
  :long: -71.51
'01550':
  :zip: '01550'
  :city: SOUTHBRIDGE
  :state: MA
  :lat: 42.08
  :long: -72.03
'02366':
  :zip: '02366'
  :city: SOUTH CARVER
  :state: MA
  :lat: 41.83
  :long: -70.72
02659:
  :zip: 02659
  :city: SOUTH CHATHAM
  :state: MA
  :lat: 41.68
  :long: -70.02
'02660':
  :zip: '02660'
  :city: SOUTH DENNIS
  :state: MA
  :lat: 41.7
  :long: -70.15
'02375':
  :zip: '02375'
  :city: SOUTH EASTON
  :state: MA
  :lat: 42.03
  :long: -71.1
'01560':
  :zip: '01560'
  :city: SOUTH GRAFTON
  :state: MA
  :lat: 42.17
  :long: -71.68
01982:
  :zip: 01982
  :city: SOUTH HAMILTON
  :state: MA
  :lat: 42.62
  :long: -70.86
'02661':
  :zip: '02661'
  :city: SOUTH HARWICH
  :state: MA
  :lat: 41.67
  :long: -70.04
'01561':
  :zip: '01561'
  :city: SOUTH LANCASTER
  :state: MA
  :lat: 42.43
  :long: -71.69
'02662':
  :zip: '02662'
  :city: SOUTH ORLEANS
  :state: MA
  :lat: 41.75
  :long: -69.99
'02071':
  :zip: '02071'
  :city: SOUTH WALPOLE
  :state: MA
  :lat: 42.09
  :long: -71.27
'02663':
  :zip: '02663'
  :city: SOUTH WELLFLEET
  :state: MA
  :lat: 41.89
  :long: -69.98
'02664':
  :zip: '02664'
  :city: SOUTH YARMOUTH
  :state: MA
  :lat: 41.67
  :long: -70.2
'02673':
  :zip: '02673'
  :city: WEST YARMOUTH
  :state: MA
  :lat: 41.65
  :long: -70.24
'01562':
  :zip: '01562'
  :city: SPENCER
  :state: MA
  :lat: 42.24
  :long: -71.99
'01564':
  :zip: '01564'
  :city: STERLING
  :state: MA
  :lat: 42.43
  :long: -71.75
'01467':
  :zip: '01467'
  :city: STILL RIVER
  :state: MA
  :lat: 42.49
  :long: -71.61
'02072':
  :zip: '02072'
  :city: STOUGHTON
  :state: MA
  :lat: 42.11
  :long: -71.1
'01775':
  :zip: '01775'
  :city: STOW
  :state: MA
  :lat: 42.43
  :long: -71.5
01518:
  :zip: 01518
  :city: FISKDALE
  :state: MA
  :lat: 42.12
  :long: -72.11
'01566':
  :zip: '01566'
  :city: STURBRIDGE
  :state: MA
  :lat: 42.09
  :long: -72.06
'01776':
  :zip: '01776'
  :city: SUDBURY
  :state: MA
  :lat: 42.36
  :long: -71.4
01590:
  :zip: 01590
  :city: SUTTON
  :state: MA
  :lat: 42.15
  :long: -71.76
01468:
  :zip: 01468
  :city: TEMPLETON
  :state: MA
  :lat: 42.55
  :long: -72.06
01876:
  :zip: 01876
  :city: TEWKSBURY
  :state: MA
  :lat: 42.61
  :long: -71.23
01983:
  :zip: 01983
  :city: TOPSFIELD
  :state: MA
  :lat: 42.63
  :long: -70.95
01469:
  :zip: 01469
  :city: TOWNSEND
  :state: MA
  :lat: 42.66
  :long: -71.7
'01474':
  :zip: '01474'
  :city: WEST TOWNSEND
  :state: MA
  :lat: 42.66
  :long: -71.74
'02666':
  :zip: '02666'
  :city: TRURO
  :state: MA
  :lat: 42.0
  :long: -70.06
01879:
  :zip: 01879
  :city: TYNGSBORO
  :state: MA
  :lat: 42.68
  :long: -71.41
01569:
  :zip: 01569
  :city: UXBRIDGE
  :state: MA
  :lat: 42.08
  :long: -71.6
02568:
  :zip: 02568
  :city: VINEYARD HAVEN
  :state: MA
  :lat: 41.45
  :long: -70.6
'02573':
  :zip: '02573'
  :city: WEST CHOP
  :state: MA
  :lat: 41.45
  :long: -70.6
01880:
  :zip: 01880
  :city: WAKEFIELD
  :state: MA
  :lat: 42.5
  :long: -71.06
02081:
  :zip: 02081
  :city: WALPOLE
  :state: MA
  :lat: 42.13
  :long: -71.24
'02571':
  :zip: '02571'
  :city: WAREHAM
  :state: MA
  :lat: 41.76
  :long: -70.71
01778:
  :zip: 01778
  :city: WAYLAND
  :state: MA
  :lat: 42.36
  :long: -71.36
'01570':
  :zip: '01570'
  :city: WEBSTER
  :state: MA
  :lat: 42.04
  :long: -71.87
'01571':
  :zip: '01571'
  :city: DUDLEY
  :state: MA
  :lat: 42.05
  :long: -71.93
'02667':
  :zip: '02667'
  :city: WELLFLEET
  :state: MA
  :lat: 41.93
  :long: -70.03
'02637':
  :zip: '02637'
  :city: CUMMAQUID
  :state: MA
  :lat: 41.7
  :long: -70.24
01923:
  :zip: 01923
  :city: DANVERS
  :state: MA
  :lat: 42.57
  :long: -70.95
'02026':
  :zip: '02026'
  :city: DEDHAM
  :state: MA
  :lat: 42.24
  :long: -71.17
'02027':
  :zip: '02027'
  :city: DEDHAM
  :state: MA
  :lat: 42.24
  :long: -71.17
02638:
  :zip: 02638
  :city: DENNIS
  :state: MA
  :lat: 41.73
  :long: -70.2
02639:
  :zip: 02639
  :city: DENNIS PORT
  :state: MA
  :lat: 41.66
  :long: -70.13
'02030':
  :zip: '02030'
  :city: DOVER
  :state: MA
  :lat: 42.24
  :long: -71.27
01826:
  :zip: 01826
  :city: DRACUT
  :state: MA
  :lat: 42.66
  :long: -71.3
01827:
  :zip: 01827
  :city: DUNSTABLE
  :state: MA
  :lat: 42.66
  :long: -71.48
'02331':
  :zip: '02331'
  :city: DUXBURY
  :state: MA
  :lat: 42.04
  :long: -70.67
'02332':
  :zip: '02332'
  :city: DUXBURY
  :state: MA
  :lat: 42.04
  :long: -70.67
'02333':
  :zip: '02333'
  :city: EAST BRIDGEWATER
  :state: MA
  :lat: 42.03
  :long: -70.95
'01515':
  :zip: '01515'
  :city: EAST BROOKFIELD
  :state: MA
  :lat: 42.22
  :long: -72.04
'02641':
  :zip: '02641'
  :city: EAST DENNIS
  :state: MA
  :lat: 41.74
  :long: -70.15
'01516':
  :zip: '01516'
  :city: DOUGLAS
  :state: MA
  :lat: 42.05
  :long: -71.73
'02536':
  :zip: '02536'
  :city: EAST FALMOUTH
  :state: MA
  :lat: 41.56
  :long: -70.55
'02642':
  :zip: '02642'
  :city: EASTHAM
  :state: MA
  :lat: 41.83
  :long: -69.96
'02334':
  :zip: '02334'
  :city: EASTON
  :state: MA
  :lat: 42.03
  :long: -71.1
'02643':
  :zip: '02643'
  :city: EAST ORLEANS
  :state: MA
  :lat: 41.74
  :long: -69.98
'01517':
  :zip: '01517'
  :city: EAST PRINCETON
  :state: MA
  :lat: 42.46
  :long: -71.89
'02537':
  :zip: '02537'
  :city: EAST SANDWICH
  :state: MA
  :lat: 41.73
  :long: -70.43
01438:
  :zip: 01438
  :city: EAST TEMPLETON
  :state: MA
  :lat: 42.53
  :long: -72.05
'02032':
  :zip: '02032'
  :city: EAST WALPOLE
  :state: MA
  :lat: 42.15
  :long: -71.21
02538:
  :zip: 02538
  :city: EAST WAREHAM
  :state: MA
  :lat: 41.77
  :long: -70.64
02539:
  :zip: 02539
  :city: EDGARTOWN
  :state: MA
  :lat: 41.38
  :long: -70.53
'02337':
  :zip: '02337'
  :city: ELMWOOD
  :state: MA
  :lat: 42.01
  :long: -70.96
01929:
  :zip: 01929
  :city: ESSEX
  :state: MA
  :lat: 42.63
  :long: -70.77
'02540':
  :zip: '02540'
  :city: FALMOUTH
  :state: MA
  :lat: 41.56
  :long: -70.62
'02541':
  :zip: '02541'
  :city: FALMOUTH
  :state: MA
  :lat: 41.54
  :long: -70.6
'02543':
  :zip: '02543'
  :city: WOODS HOLE
  :state: MA
  :lat: 41.52
  :long: -70.66
'01521':
  :zip: '01521'
  :city: HOLLAND
  :state: MA
  :lat: 42.05
  :long: -72.15
'01420':
  :zip: '01420'
  :city: FITCHBURG
  :state: MA
  :lat: 42.58
  :long: -71.81
'02644':
  :zip: '02644'
  :city: FORESTDALE
  :state: MA
  :lat: 41.68
  :long: -70.5
'02035':
  :zip: '02035'
  :city: FOXBORO
  :state: MA
  :lat: 42.06
  :long: -71.24
'01701':
  :zip: '01701'
  :city: FRAMINGHAM
  :state: MA
  :lat: 42.3
  :long: -71.43
'01702':
  :zip: '01702'
  :city: FRAMINGHAM
  :state: MA
  :lat: 42.3
  :long: -71.43
'01703':
  :zip: '01703'
  :city: FRAMINGHAM
  :state: MA
  :lat: 42.3
  :long: -71.43
'01704':
  :zip: '01704'
  :city: FRAMINGHAM
  :state: MA
  :lat: 42.3
  :long: -71.43
'01705':
  :zip: '01705'
  :city: FRAMINGHAM
  :state: MA
  :lat: 42.3
  :long: -71.43
02038:
  :zip: 02038
  :city: FRANKLIN
  :state: MA
  :lat: 42.08
  :long: -71.38
'01440':
  :zip: '01440'
  :city: GARDNER
  :state: MA
  :lat: 42.58
  :long: -71.98
01930:
  :zip: 01930
  :city: GLOUCESTER
  :state: MA
  :lat: 42.62
  :long: -70.66
01931:
  :zip: 01931
  :city: GLOUCESTER
  :state: MA
  :lat: 42.62
  :long: -70.66
01519:
  :zip: 01519
  :city: GRAFTON
  :state: MA
  :lat: 42.2
  :long: -71.68
'02041':
  :zip: '02041'
  :city: GREEN HARBOR
  :state: MA
  :lat: 42.1
  :long: -70.71
'01450':
  :zip: '01450'
  :city: GROTON
  :state: MA
  :lat: 42.6
  :long: -71.57
'01470':
  :zip: '01470'
  :city: GROTON
  :state: MA
  :lat: 42.6
  :long: -71.57
'01471':
  :zip: '01471'
  :city: GROTON
  :state: MA
  :lat: 42.6
  :long: -71.57
02338:
  :zip: 02338
  :city: HALIFAX
  :state: MA
  :lat: 41.98
  :long: -70.86
01936:
  :zip: 01936
  :city: HAMILTON
  :state: MA
  :lat: 42.61
  :long: -70.86
02339:
  :zip: 02339
  :city: HANOVER
  :state: MA
  :lat: 42.11
  :long: -70.81
'02340':
  :zip: '02340'
  :city: HANOVER
  :state: MA
  :lat: 42.11
  :long: -70.81
'02341':
  :zip: '02341'
  :city: HANSON
  :state: MA
  :lat: 42.06
  :long: -70.85
'01451':
  :zip: '01451'
  :city: HARVARD
  :state: MA
  :lat: 42.5
  :long: -71.58
'02645':
  :zip: '02645'
  :city: HARWICH
  :state: MA
  :lat: 41.69
  :long: -70.07
'02646':
  :zip: '02646'
  :city: HARWICH PORT
  :state: MA
  :lat: 41.66
  :long: -70.06
01937:
  :zip: 01937
  :city: HATHORNE
  :state: MA
  :lat: 42.57
  :long: -70.95
01830:
  :zip: 01830
  :city: HAVERHILL
  :state: MA
  :lat: 42.78
  :long: -71.08
01831:
  :zip: 01831
  :city: HAVERHILL
  :state: MA
  :lat: 42.78
  :long: -71.08
01832:
  :zip: 01832
  :city: HAVERHILL
  :state: MA
  :lat: 42.78
  :long: -71.08
01833:
  :zip: 01833
  :city: GEORGETOWN
  :state: MA
  :lat: 42.73
  :long: -70.98
01834:
  :zip: 01834
  :city: GROVELAND
  :state: MA
  :lat: 42.75
  :long: -71.03
01835:
  :zip: 01835
  :city: HAVERHILL
  :state: MA
  :lat: 42.78
  :long: -71.08
02018:
  :zip: 02018
  :city: ACCORD
  :state: MA
  :lat: 42.17
  :long: -70.88
'02043':
  :zip: '02043'
  :city: HINGHAM
  :state: MA
  :lat: 42.23
  :long: -70.88
'02044':
  :zip: '02044'
  :city: HINGHAM
  :state: MA
  :lat: 42.23
  :long: -70.88
'02343':
  :zip: '02343'
  :city: HOLBROOK
  :state: MA
  :lat: 42.14
  :long: -71.0
'01520':
  :zip: '01520'
  :city: HOLDEN
  :state: MA
  :lat: 42.35
  :long: -71.85
'01746':
  :zip: '01746'
  :city: HOLLISTON
  :state: MA
  :lat: 42.2
  :long: -71.43
'01747':
  :zip: '01747'
  :city: HOPEDALE
  :state: MA
  :lat: 42.12
  :long: -71.54
01748:
  :zip: 01748
  :city: HOPKINTON
  :state: MA
  :lat: 42.22
  :long: -71.52
'01452':
  :zip: '01452'
  :city: HUBBARDSTON
  :state: MA
  :lat: 42.48
  :long: -72.01
01749:
  :zip: 01749
  :city: HUDSON
  :state: MA
  :lat: 42.39
  :long: -71.56
'02045':
  :zip: '02045'
  :city: HULL
  :state: MA
  :lat: 42.3
  :long: -70.9
'02047':
  :zip: '02047'
  :city: HUMAROCK
  :state: MA
  :lat: 42.19
  :long: -70.76
'02601':
  :zip: '02601'
  :city: HYANNIS
  :state: MA
  :lat: 41.65
  :long: -70.29
'02647':
  :zip: '02647'
  :city: HYANNIS PORT
  :state: MA
  :lat: 41.64
  :long: -70.3
01938:
  :zip: 01938
  :city: IPSWICH
  :state: MA
  :lat: 42.67
  :long: -70.83
'01522':
  :zip: '01522'
  :city: JEFFERSON
  :state: MA
  :lat: 42.38
  :long: -71.87
'01523':
  :zip: '01523'
  :city: LANCASTER
  :state: MA
  :lat: 42.45
  :long: -71.66
01840:
  :zip: 01840
  :city: LAWRENCE
  :state: MA
  :lat: 42.7
  :long: -71.16
01841:
  :zip: 01841
  :city: LAWRENCE
  :state: MA
  :lat: 42.7
  :long: -71.16
01842:
  :zip: 01842
  :city: LAWRENCE
  :state: MA
  :lat: 42.7
  :long: -71.16
01843:
  :zip: 01843
  :city: LAWRENCE
  :state: MA
  :lat: 42.7
  :long: -71.16
01844:
  :zip: 01844
  :city: METHUEN
  :state: MA
  :lat: 42.71
  :long: -71.18
01845:
  :zip: 01845
  :city: NORTH ANDOVER
  :state: MA
  :lat: 42.7
  :long: -71.11
'01524':
  :zip: '01524'
  :city: LEICESTER
  :state: MA
  :lat: 42.25
  :long: -71.9
'01453':
  :zip: '01453'
  :city: LEOMINSTER
  :state: MA
  :lat: 42.51
  :long: -71.77
'01773':
  :zip: '01773'
  :city: LINCOLN
  :state: MA
  :lat: 42.41
  :long: -71.3
'01525':
  :zip: '01525'
  :city: LINWOOD
  :state: MA
  :lat: 42.05
  :long: -71.64
'01460':
  :zip: '01460'
  :city: LITTLETON
  :state: MA
  :lat: 42.53
  :long: -71.47
01850:
  :zip: 01850
  :city: LOWELL
  :state: MA
  :lat: 42.63
  :long: -71.32
01851:
  :zip: 01851
  :city: LOWELL
  :state: MA
  :lat: 42.63
  :long: -71.32
01852:
  :zip: 01852
  :city: LOWELL
  :state: MA
  :lat: 42.63
  :long: -71.32
01853:
  :zip: 01853
  :city: LOWELL
  :state: MA
  :lat: 42.63
  :long: -71.32
01854:
  :zip: 01854
  :city: LOWELL
  :state: MA
  :lat: 42.63
  :long: -71.32
'01462':
  :zip: '01462'
  :city: LUNENBURG
  :state: MA
  :lat: 42.59
  :long: -71.72
01901:
  :zip: 01901
  :city: LYNN
  :state: MA
  :lat: 42.47
  :long: -70.96
01902:
  :zip: 01902
  :city: LYNN
  :state: MA
  :lat: 42.47
  :long: -70.96
01903:
  :zip: 01903
  :city: LYNN
  :state: MA
  :lat: 42.47
  :long: -70.96
01904:
  :zip: 01904
  :city: LYNN
  :state: MA
  :lat: 42.47
  :long: -70.96
01905:
  :zip: 01905
  :city: LYNN
  :state: MA
  :lat: 42.47
  :long: -70.96
01906:
  :zip: 01906
  :city: SAUGUS
  :state: MA
  :lat: 42.46
  :long: -71.01
01907:
  :zip: 01907
  :city: SWAMPSCOTT
  :state: MA
  :lat: 42.46
  :long: -70.89
01908:
  :zip: 01908
  :city: NAHANT
  :state: MA
  :lat: 42.42
  :long: -70.92
01910:
  :zip: 01910
  :city: LYNN
  :state: MA
  :lat: 42.47
  :long: -70.96
01940:
  :zip: 01940
  :city: LYNNFIELD
  :state: MA
  :lat: 42.53
  :long: -71.04
'01526':
  :zip: '01526'
  :city: MANCHAUG
  :state: MA
  :lat: 42.12
  :long: -71.76
01944:
  :zip: 01944
  :city: MANCHESTER
  :state: MA
  :lat: 42.56
  :long: -70.76
'02345':
  :zip: '02345'
  :city: MANOMET
  :state: MA
  :lat: 41.92
  :long: -70.56
02048:
  :zip: 02048
  :city: MANSFIELD
  :state: MA
  :lat: 42.02
  :long: -71.21
01945:
  :zip: 01945
  :city: MARBLEHEAD
  :state: MA
  :lat: 42.5
  :long: -70.85
'01752':
  :zip: '01752'
  :city: MARLBOROUGH
  :state: MA
  :lat: 42.34
  :long: -71.54
'02050':
  :zip: '02050'
  :city: MARSHFIELD
  :state: MA
  :lat: 42.09
  :long: -70.7
'02065':
  :zip: '02065'
  :city: OCEAN BLUFF
  :state: MA
  :lat: 42.1
  :long: -70.71
'02051':
  :zip: '02051'
  :city: MARSHFIELD HILLS
  :state: MA
  :lat: 42.15
  :long: -70.73
02648:
  :zip: 02648
  :city: MARSTONS MILLS
  :state: MA
  :lat: 41.67
  :long: -70.4
02649:
  :zip: 02649
  :city: MASHPEE
  :state: MA
  :lat: 41.65
  :long: -70.48
'01754':
  :zip: '01754'
  :city: MAYNARD
  :state: MA
  :lat: 42.42
  :long: -71.45
'02052':
  :zip: '02052'
  :city: MEDFIELD
  :state: MA
  :lat: 42.18
  :long: -71.3
'02053':
  :zip: '02053'
  :city: MEDWAY
  :state: MA
  :lat: 42.13
  :long: -71.4
'01756':
  :zip: '01756'
  :city: MENDON
  :state: MA
  :lat: 42.1
  :long: -71.55
01860:
  :zip: 01860
  :city: MERRIMAC
  :state: MA
  :lat: 42.83
  :long: -71.0
'02344':
  :zip: '02344'
  :city: MIDDLEBORO
  :state: MA
  :lat: 41.86
  :long: -70.9
'02346':
  :zip: '02346'
  :city: MIDDLEBORO
  :state: MA
  :lat: 41.86
  :long: -70.9
02348:
  :zip: 02348
  :city: LAKEVILLE
  :state: MA
  :lat: 41.86
  :long: -70.9
02349:
  :zip: 02349
  :city: MIDDLEBORO
  :state: MA
  :lat: 41.86
  :long: -70.9
01949:
  :zip: 01949
  :city: MIDDLETON
  :state: MA
  :lat: 42.6
  :long: -71.01
'01757':
  :zip: '01757'
  :city: MILFORD
  :state: MA
  :lat: 42.14
  :long: -71.51
'01527':
  :zip: '01527'
  :city: MILLBURY
  :state: MA
  :lat: 42.19
  :long: -71.76
01984:
  :zip: 01984
  :city: WENHAM
  :state: MA
  :lat: 42.6
  :long: -70.88
02668:
  :zip: 02668
  :city: WEST BARNSTABLE
  :state: MA
  :lat: 41.7
  :long: -70.37
01580:
  :zip: 01580
  :city: WESTBOROUGH
  :state: MA
  :lat: 42.26
  :long: -71.61
01581:
  :zip: 01581
  :city: WESTBOROUGH
  :state: MA
  :lat: 42.26
  :long: -71.61
01582:
  :zip: 01582
  :city: WESTBOROUGH
  :state: MA
  :lat: 42.26
  :long: -71.61
01885:
  :zip: 01885
  :city: WEST BOXFORD
  :state: MA
  :lat: 42.67
  :long: -71.03
01583:
  :zip: 01583
  :city: WEST BOYLSTON
  :state: MA
  :lat: 42.36
  :long: -71.78
02379:
  :zip: 02379
  :city: WEST BRIDGEWATER
  :state: MA
  :lat: 42.01
  :long: -71.0
01585:
  :zip: 01585
  :city: WEST BROOKFIELD
  :state: MA
  :lat: 42.23
  :long: -72.14
02669:
  :zip: 02669
  :city: WEST CHATHAM
  :state: MA
  :lat: 41.68
  :long: -69.99
'02670':
  :zip: '02670'
  :city: WEST DENNIS
  :state: MA
  :lat: 41.66
  :long: -70.16
'02574':
  :zip: '02574'
  :city: WEST FALMOUTH
  :state: MA
  :lat: 41.6
  :long: -70.64
01886:
  :zip: 01886
  :city: WESTFORD
  :state: MA
  :lat: 42.58
  :long: -71.43
'01472':
  :zip: '01472'
  :city: WEST GROTON
  :state: MA
  :lat: 42.61
  :long: -71.62
'02671':
  :zip: '02671'
  :city: WEST HARWICH
  :state: MA
  :lat: 41.67
  :long: -70.11
'02672':
  :zip: '02672'
  :city: WEST HYANNISPORT
  :state: MA
  :lat: 41.66
  :long: -70.33
'01441':
  :zip: '01441'
  :city: WESTMINSTER
  :state: MA
  :lat: 42.58
  :long: -71.98
'01473':
  :zip: '01473'
  :city: WESTMINSTER
  :state: MA
  :lat: 42.55
  :long: -71.9
01985:
  :zip: 01985
  :city: WEST NEWBURY
  :state: MA
  :lat: 42.8
  :long: -71.0
'02575':
  :zip: '02575'
  :city: WEST TISBURY
  :state: MA
  :lat: 41.38
  :long: -70.67
01568:
  :zip: 01568
  :city: UPTON
  :state: MA
  :lat: 42.17
  :long: -71.61
'02576':
  :zip: '02576'
  :city: WEST WAREHAM
  :state: MA
  :lat: 41.78
  :long: -70.75
02090:
  :zip: 02090
  :city: WESTWOOD
  :state: MA
  :lat: 42.21
  :long: -71.21
02381:
  :zip: 02381
  :city: WHITE HORSE BEACH
  :state: MA
  :lat: 41.93
  :long: -70.59
01588:
  :zip: 01588
  :city: WHITINSVILLE
  :state: MA
  :lat: 42.11
  :long: -71.67
02382:
  :zip: 02382
  :city: WHITMAN
  :state: MA
  :lat: 42.08
  :long: -70.93
01887:
  :zip: 01887
  :city: WILMINGTON
  :state: MA
  :lat: 42.55
  :long: -71.16
'01475':
  :zip: '01475'
  :city: WINCHENDON
  :state: MA
  :lat: 42.68
  :long: -72.04
'01477':
  :zip: '01477'
  :city: WINCHENDON SPRINGS
  :state: MA
  :lat: 42.69
  :long: -72.01
01890:
  :zip: 01890
  :city: WINCHESTER
  :state: MA
  :lat: 42.45
  :long: -71.14
01801:
  :zip: 01801
  :city: WOBURN
  :state: MA
  :lat: 42.48
  :long: -71.15
01807:
  :zip: 01807
  :city: WOBURN
  :state: MA
  :lat: 42.48
  :long: -71.15
01813:
  :zip: 01813
  :city: WOBURN
  :state: MA
  :lat: 42.48
  :long: -71.15
01815:
  :zip: 01815
  :city: WOBURN
  :state: MA
  :lat: 42.48
  :long: -71.15
01888:
  :zip: 01888
  :city: WOBURN
  :state: MA
  :lat: 42.48
  :long: -71.15
01784:
  :zip: 01784
  :city: WOODVILLE
  :state: MA
  :lat: 42.23
  :long: -71.55
'01601':
  :zip: '01601'
  :city: WORCESTER
  :state: MA
  :lat: 42.26
  :long: -71.8
'01602':
  :zip: '01602'
  :city: WORCESTER
  :state: MA
  :lat: 42.26
  :long: -71.8
'01603':
  :zip: '01603'
  :city: WORCESTER
  :state: MA
  :lat: 42.26
  :long: -71.8
'01604':
  :zip: '01604'
  :city: WORCESTER
  :state: MA
  :lat: 42.26
  :long: -71.8
'01605':
  :zip: '01605'
  :city: WORCESTER
  :state: MA
  :lat: 42.26
  :long: -71.8
'01606':
  :zip: '01606'
  :city: WORCESTER
  :state: MA
  :lat: 42.26
  :long: -71.8
'01607':
  :zip: '01607'
  :city: WORCESTER
  :state: MA
  :lat: 42.26
  :long: -71.8
01608:
  :zip: 01608
  :city: WORCESTER
  :state: MA
  :lat: 42.26
  :long: -71.8
01609:
  :zip: 01609
  :city: WORCESTER
  :state: MA
  :lat: 42.26
  :long: -71.8
'01610':
  :zip: '01610'
  :city: WORCESTER
  :state: MA
  :lat: 42.26
  :long: -71.8
'01611':
  :zip: '01611'
  :city: CHERRY VALLEY
  :state: MA
  :lat: 42.23
  :long: -71.87
'01612':
  :zip: '01612'
  :city: PAXTON
  :state: MA
  :lat: 42.31
  :long: -71.93
'01613':
  :zip: '01613'
  :city: WORCESTER
  :state: MA
  :lat: 42.26
  :long: -71.8
'01614':
  :zip: '01614'
  :city: WORCESTER
  :state: MA
  :lat: 42.26
  :long: -71.8
'01615':
  :zip: '01615'
  :city: WORCESTER
  :state: MA
  :lat: 42.26
  :long: -71.8
'01653':
  :zip: '01653'
  :city: WORCESTER
  :state: MA
  :lat: 42.26
  :long: -71.8
'01654':
  :zip: '01654'
  :city: WORCESTER
  :state: MA
  :lat: 42.26
  :long: -71.8
'01655':
  :zip: '01655'
  :city: WORCESTER
  :state: MA
  :lat: 42.26
  :long: -71.8
02093:
  :zip: 02093
  :city: WRENTHAM
  :state: MA
  :lat: 42.06
  :long: -71.33
'02675':
  :zip: '02675'
  :city: YARMOUTH PORT
  :state: MA
  :lat: 41.7
  :long: -70.22
'02364':
  :zip: '02364'
  :city: KINGSTON
  :state: MA
  :lat: 41.99
  :long: -70.71
'02347':
  :zip: '02347'
  :city: LAKEVILLE
  :state: MA
  :lat: 41.85
  :long: -70.95
'04406':
  :zip: '04406'
  :city: ABBOT
  :state: ME
  :lat: 45.18
  :long: -69.45
'04001':
  :zip: '04001'
  :city: ACTON
  :state: ME
  :lat: 43.53
  :long: -70.91
'04606':
  :zip: '04606'
  :city: ADDISON
  :state: ME
  :lat: 45.08
  :long: -67.46
04910:
  :zip: 04910
  :city: ALBION
  :state: ME
  :lat: 44.53
  :long: -69.44
'04002':
  :zip: '04002'
  :city: ALFRED
  :state: ME
  :lat: 43.47
  :long: -70.71
'04535':
  :zip: '04535'
  :city: ALNA
  :state: ME
  :lat: 44.1
  :long: -69.6
'04216':
  :zip: '04216'
  :city: ANDOVER
  :state: ME
  :lat: 44.63
  :long: -70.75
04911:
  :zip: 04911
  :city: ANSON
  :state: ME
  :lat: 44.79
  :long: -69.88
'04732':
  :zip: '04732'
  :city: ASHLAND
  :state: ME
  :lat: 46.63
  :long: -68.4
04912:
  :zip: 04912
  :city: ATHENS
  :state: ME
  :lat: 44.92
  :long: -69.67
'04210':
  :zip: '04210'
  :city: AUBURN
  :state: ME
  :lat: 44.08
  :long: -70.24
'04211':
  :zip: '04211'
  :city: AUBURN
  :state: ME
  :lat: 44.08
  :long: -70.24
'04212':
  :zip: '04212'
  :city: AUBURN
  :state: ME
  :lat: 44.08
  :long: -70.24
'04330':
  :zip: '04330'
  :city: AUGUSTA
  :state: ME
  :lat: 44.33
  :long: -69.72
'04332':
  :zip: '04332'
  :city: AUGUSTA
  :state: ME
  :lat: 44.33
  :long: -69.72
'04333':
  :zip: '04333'
  :city: AUGUSTA
  :state: ME
  :lat: 44.33
  :long: -69.72
'04336':
  :zip: '04336'
  :city: AUGUSTA
  :state: ME
  :lat: 44.33
  :long: -69.72
04338:
  :zip: 04338
  :city: AUGUSTA
  :state: ME
  :lat: 44.33
  :long: -69.72
04408:
  :zip: 04408
  :city: AURORA
  :state: ME
  :lat: 44.85
  :long: -68.32
'04003':
  :zip: '04003'
  :city: BAILEY ISLAND
  :state: ME
  :lat: 43.73
  :long: -69.99
'04401':
  :zip: '04401'
  :city: BANGOR
  :state: ME
  :lat: 44.83
  :long: -68.78
'04402':
  :zip: '04402'
  :city: BANGOR
  :state: ME
  :lat: 44.83
  :long: -68.78
04609:
  :zip: 04609
  :city: BAR HARBOR
  :state: ME
  :lat: 44.38
  :long: -68.21
'04004':
  :zip: '04004'
  :city: BAR MILLS
  :state: ME
  :lat: 43.61
  :long: -70.54
'04635':
  :zip: '04635'
  :city: FRENCHBORO
  :state: ME
  :lat: 44.11
  :long: -68.36
'04653':
  :zip: '04653'
  :city: BASS HARBOR
  :state: ME
  :lat: 44.15
  :long: -68.43
'04530':
  :zip: '04530'
  :city: BATH
  :state: ME
  :lat: 43.93
  :long: -69.83
'04611':
  :zip: '04611'
  :city: BEALS
  :state: ME
  :lat: 44.48
  :long: -67.58
04915:
  :zip: 04915
  :city: BELFAST
  :state: ME
  :lat: 44.42
  :long: -69.02
04917:
  :zip: 04917
  :city: BELGRADE
  :state: ME
  :lat: 44.44
  :long: -69.83
04918:
  :zip: 04918
  :city: BELGRADE LAKES
  :state: ME
  :lat: 44.51
  :long: -69.84
'04733':
  :zip: '04733'
  :city: BENEDICTA
  :state: ME
  :lat: 45.8
  :long: -68.41
'04612':
  :zip: '04612'
  :city: BERNARD
  :state: ME
  :lat: 44.24
  :long: -68.35
03901:
  :zip: 03901
  :city: BERWICK
  :state: ME
  :lat: 43.26
  :long: -70.86
'04217':
  :zip: '04217'
  :city: BETHEL
  :state: ME
  :lat: 44.4
  :long: -70.79
04286:
  :zip: 04286
  :city: WEST BETHEL
  :state: ME
  :lat: 44.4
  :long: -70.86
'04005':
  :zip: '04005'
  :city: BIDDEFORD
  :state: ME
  :lat: 43.46
  :long: -70.44
'04007':
  :zip: '04007'
  :city: BIDDEFORD
  :state: ME
  :lat: 43.46
  :long: -70.44
'04006':
  :zip: '04006'
  :city: BIDDEFORD POOL
  :state: ME
  :lat: 43.44
  :long: -70.34
04920:
  :zip: 04920
  :city: BINGHAM
  :state: ME
  :lat: 45.05
  :long: -69.87
'04613':
  :zip: '04613'
  :city: BIRCH HARBOR
  :state: ME
  :lat: 44.38
  :long: -68.04
'04734':
  :zip: '04734'
  :city: BLAINE
  :state: ME
  :lat: 46.5
  :long: -67.86
'04614':
  :zip: '04614'
  :city: BLUE HILL
  :state: ME
  :lat: 44.41
  :long: -68.58
04629:
  :zip: 04629
  :city: EAST BLUE HILL
  :state: ME
  :lat: 44.44
  :long: -68.54
'04537':
  :zip: '04537'
  :city: BOOTHBAY
  :state: ME
  :lat: 43.87
  :long: -69.63
04549:
  :zip: 04549
  :city: ISLE OF SPRINGS
  :state: ME
  :lat: 43.89
  :long: -69.62
04538:
  :zip: 04538
  :city: BOOTHBAY HARBOR
  :state: ME
  :lat: 43.85
  :long: -69.62
'04570':
  :zip: '04570'
  :city: SQUIRREL ISLAND
  :state: ME
  :lat: 43.8
  :long: -69.63
04008:
  :zip: 04008
  :city: BOWDOINHAM
  :state: ME
  :lat: 44.01
  :long: -69.89
'04410':
  :zip: '04410'
  :city: BRADFORD
  :state: ME
  :lat: 45.06
  :long: -68.93
'04411':
  :zip: '04411'
  :city: BRADLEY
  :state: ME
  :lat: 44.92
  :long: -68.62
'04412':
  :zip: '04412'
  :city: BREWER
  :state: ME
  :lat: 44.77
  :long: -68.73
'04735':
  :zip: '04735'
  :city: BRIDGEWATER
  :state: ME
  :lat: 46.42
  :long: -67.84
04009:
  :zip: 04009
  :city: BRIDGTON
  :state: ME
  :lat: 44.06
  :long: -70.72
04539:
  :zip: 04539
  :city: BRISTOL
  :state: ME
  :lat: 43.95
  :long: -69.5
'04616':
  :zip: '04616'
  :city: BROOKLIN
  :state: ME
  :lat: 44.26
  :long: -68.56
04921:
  :zip: 04921
  :city: BROOKS
  :state: ME
  :lat: 44.55
  :long: -69.12
'04617':
  :zip: '04617'
  :city: BROOKSVILLE
  :state: ME
  :lat: 44.34
  :long: -68.68
'04642':
  :zip: '04642'
  :city: HARBORSIDE
  :state: ME
  :lat: 44.33
  :long: -68.79
'04413':
  :zip: '04413'
  :city: BROOKTON
  :state: ME
  :lat: 45.52
  :long: -67.76
'04010':
  :zip: '04010'
  :city: BROWNFIELD
  :state: ME
  :lat: 43.93
  :long: -70.9
'04414':
  :zip: '04414'
  :city: BROWNVILLE
  :state: ME
  :lat: 45.3
  :long: -69.03
'04415':
  :zip: '04415'
  :city: BROWNVILLE JUNCTION
  :state: ME
  :lat: 45.35
  :long: -69.05
'04011':
  :zip: '04011'
  :city: BRUNSWICK
  :state: ME
  :lat: 43.91
  :long: -69.96
04219:
  :zip: 04219
  :city: BRYANT POND
  :state: ME
  :lat: 44.37
  :long: -70.64
'04220':
  :zip: '04220'
  :city: BUCKFIELD
  :state: ME
  :lat: 44.28
  :long: -70.36
'04416':
  :zip: '04416'
  :city: BUCKSPORT
  :state: ME
  :lat: 44.6
  :long: -68.79
'04417':
  :zip: '04417'
  :city: BURLINGTON
  :state: ME
  :lat: 45.2
  :long: -68.42
04922:
  :zip: 04922
  :city: BURNHAM
  :state: ME
  :lat: 44.69
  :long: -69.42
04619:
  :zip: 04619
  :city: CALAIS
  :state: ME
  :lat: 45.13
  :long: -67.2
04923:
  :zip: 04923
  :city: CAMBRIDGE
  :state: ME
  :lat: 45.02
  :long: -69.47
04843:
  :zip: 04843
  :city: CAMDEN
  :state: ME
  :lat: 44.2
  :long: -69.06
04847:
  :zip: 04847
  :city: HOPE
  :state: ME
  :lat: 44.26
  :long: -69.15
04924:
  :zip: 04924
  :city: CANAAN
  :state: ME
  :lat: 44.76
  :long: -69.56
'04221':
  :zip: '04221'
  :city: CANTON
  :state: ME
  :lat: 44.44
  :long: -70.31
03902:
  :zip: 03902
  :city: CAPE NEDDICK
  :state: ME
  :lat: 43.17
  :long: -70.61
04925:
  :zip: 04925
  :city: CARATUNK
  :state: ME
  :lat: 45.23
  :long: -69.99
04418:
  :zip: 04418
  :city: GREENBUSH
  :state: ME
  :lat: 45.08
  :long: -68.59
'04736':
  :zip: '04736'
  :city: CARIBOU
  :state: ME
  :lat: 46.86
  :long: -67.99
04419:
  :zip: 04419
  :city: CARMEL
  :state: ME
  :lat: 44.79
  :long: -69.05
'04015':
  :zip: '04015'
  :city: CASCO
  :state: ME
  :lat: 44.0
  :long: -70.52
'04420':
  :zip: '04420'
  :city: CASTINE
  :state: ME
  :lat: 44.38
  :long: -68.8
'04421':
  :zip: '04421'
  :city: CASTINE
  :state: ME
  :lat: 44.38
  :long: -68.8
'04016':
  :zip: '04016'
  :city: CENTER LOVELL
  :state: ME
  :lat: 44.17
  :long: -70.87
'04541':
  :zip: '04541'
  :city: CHAMBERLAIN
  :state: ME
  :lat: 43.88
  :long: -69.49
'04422':
  :zip: '04422'
  :city: CHARLESTON
  :state: ME
  :lat: 45.08
  :long: -69.04
'04017':
  :zip: '04017'
  :city: CHEBEAGUE ISLAND
  :state: ME
  :lat: 43.73
  :long: -70.11
'04622':
  :zip: '04622'
  :city: CHERRYFIELD
  :state: ME
  :lat: 44.6
  :long: -67.92
04926:
  :zip: 04926
  :city: CHINA VILLAGE
  :state: ME
  :lat: 44.47
  :long: -69.51
04019:
  :zip: 04019
  :city: CLIFF ISLAND
  :state: ME
  :lat: 43.69
  :long: -70.1
04927:
  :zip: 04927
  :city: CLINTON
  :state: ME
  :lat: 44.63
  :long: -69.5
'04623':
  :zip: '04623'
  :city: COLUMBIA FALLS
  :state: ME
  :lat: 44.65
  :long: -67.72
'04341':
  :zip: '04341'
  :city: COOPERS MILLS
  :state: ME
  :lat: 44.27
  :long: -69.49
'04624':
  :zip: '04624'
  :city: COREA
  :state: ME
  :lat: 44.41
  :long: -67.99
04928:
  :zip: 04928
  :city: CORINNA
  :state: ME
  :lat: 44.92
  :long: -69.26
'04020':
  :zip: '04020'
  :city: CORNISH
  :state: ME
  :lat: 43.8
  :long: -70.8
'04625':
  :zip: '04625'
  :city: CRANBERRY ISLES
  :state: ME
  :lat: 44.24
  :long: -68.26
04738:
  :zip: 04738
  :city: CROUSEVILLE
  :state: ME
  :lat: 46.76
  :long: -68.08
'04021':
  :zip: '04021'
  :city: CUMBERLAND CENTER
  :state: ME
  :lat: 43.8
  :long: -70.25
'04563':
  :zip: '04563'
  :city: CUSHING
  :state: ME
  :lat: 44.01
  :long: -69.24
'04626':
  :zip: '04626'
  :city: CUTLER
  :state: ME
  :lat: 44.69
  :long: -67.21
'04543':
  :zip: '04543'
  :city: DAMARISCOTTA
  :state: ME
  :lat: 44.03
  :long: -69.51
'04424':
  :zip: '04424'
  :city: DANFORTH
  :state: ME
  :lat: 45.66
  :long: -67.86
04492:
  :zip: 04492
  :city: WAITE
  :state: ME
  :lat: 45.32
  :long: -67.69
'04223':
  :zip: '04223'
  :city: DANVILLE
  :state: ME
  :lat: 44.03
  :long: -70.27
'04627':
  :zip: '04627'
  :city: DEER ISLE
  :state: ME
  :lat: 44.22
  :long: -68.67
'04022':
  :zip: '04022'
  :city: DENMARK
  :state: ME
  :lat: 43.97
  :long: -70.8
04628:
  :zip: 04628
  :city: DENNYSVILLE
  :state: ME
  :lat: 44.9
  :long: -67.22
04929:
  :zip: 04929
  :city: DETROIT
  :state: ME
  :lat: 44.79
  :long: -69.29
04930:
  :zip: 04930
  :city: DEXTER
  :state: ME
  :lat: 45.01
  :long: -69.29
'04224':
  :zip: '04224'
  :city: DIXFIELD
  :state: ME
  :lat: 44.53
  :long: -70.45
04932:
  :zip: 04932
  :city: DIXMONT
  :state: ME
  :lat: 44.68
  :long: -69.16
'04426':
  :zip: '04426'
  :city: DOVER FOXCROFT
  :state: ME
  :lat: 45.21
  :long: -69.18
04481:
  :zip: 04481
  :city: SEBEC
  :state: ME
  :lat: 45.27
  :long: -69.11
'04342':
  :zip: '04342'
  :city: DRESDEN
  :state: ME
  :lat: 44.1
  :long: -69.72
'04225':
  :zip: '04225'
  :city: DRYDEN
  :state: ME
  :lat: 44.62
  :long: -70.25
04739:
  :zip: 04739
  :city: EAGLE LAKE
  :state: ME
  :lat: 47.04
  :long: -68.59
'04226':
  :zip: '04226'
  :city: EAST ANDOVER
  :state: ME
  :lat: 44.6
  :long: -70.72
'04024':
  :zip: '04024'
  :city: EAST BALDWIN
  :state: ME
  :lat: 43.88
  :long: -70.69
'04544':
  :zip: '04544'
  :city: EAST BOOTHBAY
  :state: ME
  :lat: 43.82
  :long: -69.59
'04427':
  :zip: '04427'
  :city: CORINTH
  :state: ME
  :lat: 44.98
  :long: -69.01
'04227':
  :zip: '04227'
  :city: EAST DIXFIELD
  :state: ME
  :lat: 44.57
  :long: -70.3
04428:
  :zip: 04428
  :city: EDDINGTON
  :state: ME
  :lat: 44.82
  :long: -68.69
04429:
  :zip: 04429
  :city: HOLDEN
  :state: ME
  :lat: 44.75
  :long: -68.67
'04027':
  :zip: '04027'
  :city: LEBANON
  :state: ME
  :lat: 43.39
  :long: -70.85
04228:
  :zip: 04228
  :city: EAST LIVERMORE
  :state: ME
  :lat: 44.39
  :long: -70.12
'04630':
  :zip: '04630'
  :city: EAST MACHIAS
  :state: ME
  :lat: 44.73
  :long: -67.39
'04430':
  :zip: '04430'
  :city: EAST MILLINOCKET
  :state: ME
  :lat: 45.62
  :long: -68.57
04933:
  :zip: 04933
  :city: EAST NEWPORT
  :state: ME
  :lat: 44.81
  :long: -69.22
'04740':
  :zip: '04740'
  :city: EASTON
  :state: ME
  :lat: 46.64
  :long: -67.91
'04431':
  :zip: '04431'
  :city: EAST ORLAND
  :state: ME
  :lat: 44.58
  :long: -68.66
04028:
  :zip: 04028
  :city: EAST PARSONSFIELD
  :state: ME
  :lat: 43.72
  :long: -70.91
'04230':
  :zip: '04230'
  :city: EAST POLAND
  :state: ME
  :lat: 44.06
  :long: -70.33
'04631':
  :zip: '04631'
  :city: EASTPORT
  :state: ME
  :lat: 44.91
  :long: -67.01
04029:
  :zip: 04029
  :city: SEBAGO
  :state: ME
  :lat: 43.89
  :long: -70.64
'04231':
  :zip: '04231'
  :city: STONEHAM
  :state: ME
  :lat: 44.25
  :long: -70.81
04935:
  :zip: 04935
  :city: EAST VASSALBORO
  :state: ME
  :lat: 44.44
  :long: -69.6
'04030':
  :zip: '04030'
  :city: EAST WATERBORO
  :state: ME
  :lat: 43.6
  :long: -70.69
'04234':
  :zip: '04234'
  :city: EAST WILTON
  :state: ME
  :lat: 44.61
  :long: -70.18
'04343':
  :zip: '04343'
  :city: EAST WINTHROP
  :state: ME
  :lat: 44.33
  :long: -69.9
03903:
  :zip: 03903
  :city: ELIOT
  :state: ME
  :lat: 43.15
  :long: -70.8
'04605':
  :zip: '04605'
  :city: ELLSWORTH
  :state: ME
  :lat: 44.58
  :long: -68.49
'04434':
  :zip: '04434'
  :city: ETNA
  :state: ME
  :lat: 44.82
  :long: -69.11
04936:
  :zip: 04936
  :city: EUSTIS
  :state: ME
  :lat: 45.21
  :long: -70.47
'04435':
  :zip: '04435'
  :city: EXETER
  :state: ME
  :lat: 44.97
  :long: -69.14
04937:
  :zip: 04937
  :city: FAIRFIELD
  :state: ME
  :lat: 44.59
  :long: -69.6
04938:
  :zip: 04938
  :city: FARMINGTON
  :state: ME
  :lat: 44.66
  :long: -70.14
04940:
  :zip: 04940
  :city: FARMINGTON FALLS
  :state: ME
  :lat: 44.62
  :long: -70.07
'04742':
  :zip: '04742'
  :city: FORT FAIRFIELD
  :state: ME
  :lat: 46.76
  :long: -67.83
'04737':
  :zip: '04737'
  :city: CLAYTON LAKE
  :state: ME
  :lat: 46.61
  :long: -69.52
'04741':
  :zip: '04741'
  :city: ESTCOURT STATION
  :state: ME
  :lat: 47.4
  :long: -69.17
'04743':
  :zip: '04743'
  :city: FORT KENT
  :state: ME
  :lat: 47.26
  :long: -68.57
'04744':
  :zip: '04744'
  :city: FORT KENT MILLS
  :state: ME
  :lat: 47.23
  :long: -68.58
04438:
  :zip: 04438
  :city: FRANKFORT
  :state: ME
  :lat: 44.6
  :long: -68.87
'04634':
  :zip: '04634'
  :city: FRANKLIN
  :state: ME
  :lat: 44.58
  :long: -68.23
04941:
  :zip: 04941
  :city: FREEDOM
  :state: ME
  :lat: 44.53
  :long: -69.29
'04032':
  :zip: '04032'
  :city: FREEPORT
  :state: ME
  :lat: 43.85
  :long: -70.1
'04033':
  :zip: '04033'
  :city: FREEPORT
  :state: ME
  :lat: 43.85
  :long: -70.1
'04034':
  :zip: '04034'
  :city: FREEPORT
  :state: ME
  :lat: 43.85
  :long: -70.1
'04547':
  :zip: '04547'
  :city: FRIENDSHIP
  :state: ME
  :lat: 43.98
  :long: -69.33
'04037':
  :zip: '04037'
  :city: FRYEBURG
  :state: ME
  :lat: 44.01
  :long: -70.97
'04344':
  :zip: '04344'
  :city: FARMINGDALE
  :state: ME
  :lat: 44.25
  :long: -69.78
'04345':
  :zip: '04345'
  :city: GARDINER
  :state: ME
  :lat: 44.19
  :long: -69.78
'04346':
  :zip: '04346'
  :city: RANDOLPH
  :state: ME
  :lat: 44.23
  :long: -69.75
04939:
  :zip: 04939
  :city: GARLAND
  :state: ME
  :lat: 45.03
  :long: -69.16
04548:
  :zip: 04548
  :city: GEORGETOWN
  :state: ME
  :lat: 43.8
  :long: -69.74
04038:
  :zip: 04038
  :city: GORHAM
  :state: ME
  :lat: 43.68
  :long: -70.44
'04607':
  :zip: '04607'
  :city: GOULDSBORO
  :state: ME
  :lat: 44.47
  :long: -68.03
'04746':
  :zip: '04746'
  :city: GRAND ISLE
  :state: ME
  :lat: 47.3
  :long: -68.15
04039:
  :zip: 04039
  :city: GRAY
  :state: ME
  :lat: 43.88
  :long: -70.33
'04236':
  :zip: '04236'
  :city: GREENE
  :state: ME
  :lat: 44.18
  :long: -70.14
'04441':
  :zip: '04441'
  :city: GREENVILLE
  :state: ME
  :lat: 45.46
  :long: -69.59
04485:
  :zip: 04485
  :city: SHIRLEY MILLS
  :state: ME
  :lat: 45.35
  :long: -69.63
'04442':
  :zip: '04442'
  :city: GREENVILLE JUNCTION
  :state: ME
  :lat: 45.47
  :long: -69.69
'04443':
  :zip: '04443'
  :city: GUILFORD
  :state: ME
  :lat: 45.16
  :long: -69.38
'04347':
  :zip: '04347'
  :city: HALLOWELL
  :state: ME
  :lat: 44.29
  :long: -69.81
'04444':
  :zip: '04444'
  :city: HAMPDEN
  :state: ME
  :lat: 44.74
  :long: -68.83
'04640':
  :zip: '04640'
  :city: HANCOCK
  :state: ME
  :lat: 44.52
  :long: -68.25
'04237':
  :zip: '04237'
  :city: HANOVER
  :state: ME
  :lat: 44.49
  :long: -70.69
04942:
  :zip: 04942
  :city: HARMONY
  :state: ME
  :lat: 44.97
  :long: -69.54
'04643':
  :zip: '04643'
  :city: HARRINGTON
  :state: ME
  :lat: 44.61
  :long: -67.81
'04040':
  :zip: '04040'
  :city: HARRISON
  :state: ME
  :lat: 44.11
  :long: -70.67
04943:
  :zip: 04943
  :city: HARTLAND
  :state: ME
  :lat: 44.88
  :long: -69.45
04238:
  :zip: 04238
  :city: HEBRON
  :state: ME
  :lat: 44.19
  :long: -70.4
04944:
  :zip: 04944
  :city: HINCKLEY
  :state: ME
  :lat: 44.67
  :long: -69.65
'04041':
  :zip: '04041'
  :city: HIRAM
  :state: ME
  :lat: 43.87
  :long: -70.8
'04042':
  :zip: '04042'
  :city: HOLLIS CENTER
  :state: ME
  :lat: 43.59
  :long: -70.6
'04730':
  :zip: '04730'
  :city: HOULTON
  :state: ME
  :lat: 46.11
  :long: -67.83
'04761':
  :zip: '04761'
  :city: NEW LIMERICK
  :state: ME
  :lat: 46.1
  :long: -67.96
04448:
  :zip: 04448
  :city: HOWLAND
  :state: ME
  :lat: 45.25
  :long: -68.66
04449:
  :zip: 04449
  :city: HUDSON
  :state: ME
  :lat: 45.0
  :long: -68.88
'04644':
  :zip: '04644'
  :city: HULLS COVE
  :state: ME
  :lat: 44.42
  :long: -68.27
'04747':
  :zip: '04747'
  :city: ISLAND FALLS
  :state: ME
  :lat: 46.0
  :long: -68.27
04848:
  :zip: 04848
  :city: ISLESBORO
  :state: ME
  :lat: 44.3
  :long: -68.9
'04646':
  :zip: '04646'
  :city: ISLESFORD
  :state: ME
  :lat: 44.3
  :long: -68.27
04945:
  :zip: 04945
  :city: JACKMAN
  :state: ME
  :lat: 45.62
  :long: -70.25
04239:
  :zip: 04239
  :city: JAY
  :state: ME
  :lat: 44.5
  :long: -70.21
'04262':
  :zip: '04262'
  :city: NORTH JAY
  :state: ME
  :lat: 44.53
  :long: -70.21
04348:
  :zip: 04348
  :city: JEFFERSON
  :state: ME
  :lat: 44.2
  :long: -69.45
04648:
  :zip: 04648
  :city: JONESBORO
  :state: ME
  :lat: 44.66
  :long: -67.57
04649:
  :zip: 04649
  :city: JONESPORT
  :state: ME
  :lat: 44.53
  :long: -67.59
'04450':
  :zip: '04450'
  :city: KENDUSKEAG
  :state: ME
  :lat: 44.91
  :long: -68.93
'04043':
  :zip: '04043'
  :city: KENNEBUNK
  :state: ME
  :lat: 43.38
  :long: -70.54
'04014':
  :zip: '04014'
  :city: CAPE PORPOISE
  :state: ME
  :lat: 43.37
  :long: -70.43
'04046':
  :zip: '04046'
  :city: KENNEBUNKPORT
  :state: ME
  :lat: 43.35
  :long: -70.46
04349:
  :zip: 04349
  :city: KENTS HILL
  :state: ME
  :lat: 44.43
  :long: -70.07
'04047':
  :zip: '04047'
  :city: PARSONSFIELD
  :state: ME
  :lat: 43.72
  :long: -70.92
04947:
  :zip: 04947
  :city: KINGFIELD
  :state: ME
  :lat: 44.95
  :long: -70.15
'04451':
  :zip: '04451'
  :city: KINGMAN
  :state: ME
  :lat: 45.54
  :long: -68.2
03904:
  :zip: 03904
  :city: KITTERY
  :state: ME
  :lat: 43.09
  :long: -70.73
03905:
  :zip: 03905
  :city: KITTERY POINT
  :state: ME
  :lat: 43.08
  :long: -70.69
'04453':
  :zip: '04453'
  :city: LAGRANGE
  :state: ME
  :lat: 45.16
  :long: -68.84
'04455':
  :zip: '04455'
  :city: LEE
  :state: ME
  :lat: 45.36
  :long: -68.28
'04263':
  :zip: '04263'
  :city: LEEDS
  :state: ME
  :lat: 44.3
  :long: -70.12
'04456':
  :zip: '04456'
  :city: LEVANT
  :state: ME
  :lat: 44.86
  :long: -68.93
'04240':
  :zip: '04240'
  :city: LEWISTON
  :state: ME
  :lat: 44.08
  :long: -70.17
'04241':
  :zip: '04241'
  :city: LEWISTON
  :state: ME
  :lat: 44.08
  :long: -70.17
'04243':
  :zip: '04243'
  :city: LEWISTON
  :state: ME
  :lat: 44.08
  :long: -70.17
04949:
  :zip: 04949
  :city: LIBERTY
  :state: ME
  :lat: 44.38
  :long: -69.3
04048:
  :zip: 04048
  :city: LIMERICK
  :state: ME
  :lat: 43.68
  :long: -70.79
'04750':
  :zip: '04750'
  :city: LIMESTONE
  :state: ME
  :lat: 46.91
  :long: -67.83
'04751':
  :zip: '04751'
  :city: LIMESTONE
  :state: ME
  :lat: 46.91
  :long: -67.83
04049:
  :zip: 04049
  :city: LIMINGTON
  :state: ME
  :lat: 43.73
  :long: -70.71
'04457':
  :zip: '04457'
  :city: LINCOLN
  :state: ME
  :lat: 45.36
  :long: -68.5
04849:
  :zip: 04849
  :city: LINCOLNVILLE
  :state: ME
  :lat: 44.28
  :long: -69.0
04850:
  :zip: 04850
  :city: LINCOLNVILLE CENTER
  :state: ME
  :lat: 44.3
  :long: -69.07
'04222':
  :zip: '04222'
  :city: DURHAM
  :state: ME
  :lat: 43.92
  :long: -70.12
'04250':
  :zip: '04250'
  :city: LISBON
  :state: ME
  :lat: 44.01
  :long: -70.12
'04252':
  :zip: '04252'
  :city: LISBON FALLS
  :state: ME
  :lat: 44.0
  :long: -70.05
'04350':
  :zip: '04350'
  :city: LITCHFIELD
  :state: ME
  :lat: 44.13
  :long: -69.96
'04650':
  :zip: '04650'
  :city: LITTLE DEER ISLE
  :state: ME
  :lat: 44.28
  :long: -68.71
'04253':
  :zip: '04253'
  :city: LIVERMORE
  :state: ME
  :lat: 44.33
  :long: -70.24
'04254':
  :zip: '04254'
  :city: LIVERMORE FALLS
  :state: ME
  :lat: 44.47
  :long: -70.18
'04255':
  :zip: '04255'
  :city: GREENWOOD
  :state: ME
  :lat: 44.4
  :long: -70.7
'04050':
  :zip: '04050'
  :city: LONG ISLAND
  :state: ME
  :lat: 43.69
  :long: -70.15
'04051':
  :zip: '04051'
  :city: LOVELL
  :state: ME
  :lat: 44.12
  :long: -70.89
'04652':
  :zip: '04652'
  :city: LUBEC
  :state: ME
  :lat: 44.79
  :long: -67.11
'04654':
  :zip: '04654'
  :city: MACHIAS
  :state: ME
  :lat: 44.7
  :long: -67.47
04686:
  :zip: 04686
  :city: WESLEY
  :state: ME
  :lat: 44.95
  :long: -67.66
'04655':
  :zip: '04655'
  :city: MACHIASPORT
  :state: ME
  :lat: 44.69
  :long: -67.39
'04756':
  :zip: '04756'
  :city: MADAWASKA
  :state: ME
  :lat: 47.34
  :long: -68.33
04950:
  :zip: 04950
  :city: MADISON
  :state: ME
  :lat: 44.79
  :long: -69.88
'04351':
  :zip: '04351'
  :city: MANCHESTER
  :state: ME
  :lat: 44.32
  :long: -69.86
'04757':
  :zip: '04757'
  :city: MAPLETON
  :state: ME
  :lat: 46.68
  :long: -68.16
04758:
  :zip: 04758
  :city: MARS HILL
  :state: ME
  :lat: 46.51
  :long: -67.86
04851:
  :zip: 04851
  :city: MATINICUS
  :state: ME
  :lat: 43.86
  :long: -68.88
04459:
  :zip: 04459
  :city: MATTAWAMKEAG
  :state: ME
  :lat: 45.51
  :long: -68.35
'04256':
  :zip: '04256'
  :city: MECHANIC FALLS
  :state: ME
  :lat: 44.11
  :long: -70.39
'04657':
  :zip: '04657'
  :city: MEDDYBEMPS
  :state: ME
  :lat: 45.03
  :long: -67.35
'04551':
  :zip: '04551'
  :city: BREMEN
  :state: ME
  :lat: 44.0
  :long: -69.42
'04460':
  :zip: '04460'
  :city: MEDWAY
  :state: ME
  :lat: 45.6
  :long: -68.53
'04257':
  :zip: '04257'
  :city: MEXICO
  :state: ME
  :lat: 44.56
  :long: -70.54
04658:
  :zip: 04658
  :city: MILBRIDGE
  :state: ME
  :lat: 44.52
  :long: -67.88
'04461':
  :zip: '04461'
  :city: MILFORD
  :state: ME
  :lat: 44.94
  :long: -68.64
'04462':
  :zip: '04462'
  :city: MILLINOCKET
  :state: ME
  :lat: 45.65
  :long: -68.69
'04463':
  :zip: '04463'
  :city: MILO
  :state: ME
  :lat: 45.25
  :long: -68.98
04258:
  :zip: 04258
  :city: MINOT
  :state: ME
  :lat: 44.08
  :long: -70.32
04852:
  :zip: 04852
  :city: MONHEGAN
  :state: ME
  :lat: 43.76
  :long: -69.32
04259:
  :zip: 04259
  :city: MONMOUTH
  :state: ME
  :lat: 44.23
  :long: -70.01
04951:
  :zip: 04951
  :city: MONROE
  :state: ME
  :lat: 44.61
  :long: -69.01
'04464':
  :zip: '04464'
  :city: MONSON
  :state: ME
  :lat: 45.28
  :long: -69.5
'04760':
  :zip: '04760'
  :city: MONTICELLO
  :state: ME
  :lat: 46.3
  :long: -67.84
'04054':
  :zip: '04054'
  :city: MOODY
  :state: ME
  :lat: 43.3
  :long: -70.59
04952:
  :zip: 04952
  :city: MORRILL
  :state: ME
  :lat: 44.44
  :long: -69.14
'04660':
  :zip: '04660'
  :city: MOUNT DESERT
  :state: ME
  :lat: 44.31
  :long: -68.36
'04352':
  :zip: '04352'
  :city: MOUNT VERNON
  :state: ME
  :lat: 44.5
  :long: -69.98
'04055':
  :zip: '04055'
  :city: NAPLES
  :state: ME
  :lat: 43.97
  :long: -70.6
'04553':
  :zip: '04553'
  :city: NEWCASTLE
  :state: ME
  :lat: 44.03
  :long: -69.53
'04056':
  :zip: '04056'
  :city: NEWFIELD
  :state: ME
  :lat: 43.64
  :long: -70.84
'04260':
  :zip: '04260'
  :city: NEW GLOUCESTER
  :state: ME
  :lat: 43.96
  :long: -70.28
'04554':
  :zip: '04554'
  :city: NEW HARBOR
  :state: ME
  :lat: 43.85
  :long: -69.5
04558:
  :zip: 04558
  :city: PEMAQUID
  :state: ME
  :lat: 43.89
  :long: -69.52
04953:
  :zip: 04953
  :city: NEWPORT
  :state: ME
  :lat: 44.83
  :long: -69.26
'04261':
  :zip: '04261'
  :city: NEWRY
  :state: ME
  :lat: 44.48
  :long: -70.78
04955:
  :zip: 04955
  :city: NEW SHARON
  :state: ME
  :lat: 44.63
  :long: -70.01
'04762':
  :zip: '04762'
  :city: NEW SWEDEN
  :state: ME
  :lat: 46.94
  :long: -68.12
04956:
  :zip: 04956
  :city: NEW VINEYARD
  :state: ME
  :lat: 44.8
  :long: -70.12
'04555':
  :zip: '04555'
  :city: NOBLEBORO
  :state: ME
  :lat: 44.07
  :long: -69.48
04957:
  :zip: 04957
  :city: NORRIDGEWOCK
  :state: ME
  :lat: 44.71
  :long: -69.79
04958:
  :zip: 04958
  :city: NORTH ANSON
  :state: ME
  :lat: 44.95
  :long: -69.94
03906:
  :zip: 03906
  :city: NORTH BERWICK
  :state: ME
  :lat: 43.3
  :long: -70.73
'04057':
  :zip: '04057'
  :city: NORTH BRIDGTON
  :state: ME
  :lat: 44.1
  :long: -70.7
'04662':
  :zip: '04662'
  :city: NORTHEAST HARBOR
  :state: ME
  :lat: 44.3
  :long: -68.36
'04556':
  :zip: '04556'
  :city: EDGECOMB
  :state: ME
  :lat: 43.95
  :long: -69.63
04853:
  :zip: 04853
  :city: NORTH HAVEN
  :state: ME
  :lat: 44.15
  :long: -68.86
'04265':
  :zip: '04265'
  :city: NORTH MONMOUTH
  :state: ME
  :lat: 44.27
  :long: -70.05
04954:
  :zip: 04954
  :city: NEW PORTLAND
  :state: ME
  :lat: 44.88
  :long: -70.09
04961:
  :zip: 04961
  :city: NEW PORTLAND
  :state: ME
  :lat: 45.01
  :long: -70.08
'04664':
  :zip: '04664'
  :city: SULLIVAN
  :state: ME
  :lat: 44.53
  :long: -68.15
'04266':
  :zip: '04266'
  :city: NORTH TURNER
  :state: ME
  :lat: 44.33
  :long: -70.25
04962:
  :zip: 04962
  :city: NORTH VASSALBORO
  :state: ME
  :lat: 44.48
  :long: -69.56
'04061':
  :zip: '04061'
  :city: NORTH WATERBORO
  :state: ME
  :lat: 43.63
  :long: -70.73
'04267':
  :zip: '04267'
  :city: NORTH WATERFORD
  :state: ME
  :lat: 44.2
  :long: -70.72
'04353':
  :zip: '04353'
  :city: WHITEFIELD
  :state: ME
  :lat: 44.17
  :long: -69.62
'04062':
  :zip: '04062'
  :city: WINDHAM
  :state: ME
  :lat: 43.79
  :long: -70.4
04082:
  :zip: 04082
  :city: SOUTH WINDHAM
  :state: ME
  :lat: 43.73
  :long: -70.42
04268:
  :zip: 04268
  :city: NORWAY
  :state: ME
  :lat: 44.21
  :long: -70.55
'04763':
  :zip: '04763'
  :city: OAKFIELD
  :state: ME
  :lat: 46.09
  :long: -68.15
04963:
  :zip: 04963
  :city: OAKLAND
  :state: ME
  :lat: 44.55
  :long: -69.71
03907:
  :zip: 03907
  :city: OGUNQUIT
  :state: ME
  :lat: 43.24
  :long: -70.59
'04063':
  :zip: '04063'
  :city: OCEAN PARK
  :state: ME
  :lat: 43.51
  :long: -70.38
'04064':
  :zip: '04064'
  :city: OLD ORCHARD BEACH
  :state: ME
  :lat: 43.52
  :long: -70.38
04468:
  :zip: 04468
  :city: OLD TOWN
  :state: ME
  :lat: 44.95
  :long: -68.73
04964:
  :zip: 04964
  :city: OQUOSSOC
  :state: ME
  :lat: 44.96
  :long: -70.77
'04471':
  :zip: '04471'
  :city: ORIENT
  :state: ME
  :lat: 45.81
  :long: -67.84
'04472':
  :zip: '04472'
  :city: ORLAND
  :state: ME
  :lat: 44.57
  :long: -68.73
04469:
  :zip: 04469
  :city: ORONO
  :state: ME
  :lat: 44.88
  :long: -68.68
'04473':
  :zip: '04473'
  :city: ORONO
  :state: ME
  :lat: 44.88
  :long: -68.68
'04474':
  :zip: '04474'
  :city: ORRINGTON
  :state: ME
  :lat: 44.73
  :long: -68.82
'04066':
  :zip: '04066'
  :city: ORRS ISLAND
  :state: ME
  :lat: 43.77
  :long: -69.96
04854:
  :zip: 04854
  :city: OWLS HEAD
  :state: ME
  :lat: 44.08
  :long: -69.05
'04764':
  :zip: '04764'
  :city: OXBOW
  :state: ME
  :lat: 46.41
  :long: -68.49
'04270':
  :zip: '04270'
  :city: OXFORD
  :state: ME
  :lat: 44.14
  :long: -70.5
'04354':
  :zip: '04354'
  :city: PALERMO
  :state: ME
  :lat: 44.4
  :long: -69.47
04965:
  :zip: 04965
  :city: PALMYRA
  :state: ME
  :lat: 44.84
  :long: -69.35
'04271':
  :zip: '04271'
  :city: PARIS
  :state: ME
  :lat: 44.26
  :long: -70.49
'04475':
  :zip: '04475'
  :city: PASSADUMKEAG
  :state: ME
  :lat: 45.18
  :long: -68.61
'04765':
  :zip: '04765'
  :city: PATTEN
  :state: ME
  :lat: 45.99
  :long: -68.44
'04666':
  :zip: '04666'
  :city: PEMBROKE
  :state: ME
  :lat: 44.95
  :long: -67.16
'04476':
  :zip: '04476'
  :city: PENOBSCOT
  :state: ME
  :lat: 44.46
  :long: -68.71
'04766':
  :zip: '04766'
  :city: PERHAM
  :state: ME
  :lat: 46.84
  :long: -68.19
'04667':
  :zip: '04667'
  :city: PERRY
  :state: ME
  :lat: 44.97
  :long: -67.07
04966:
  :zip: 04966
  :city: PHILLIPS
  :state: ME
  :lat: 44.82
  :long: -70.34
'04562':
  :zip: '04562'
  :city: PHIPPSBURG
  :state: ME
  :lat: 43.82
  :long: -69.81
04967:
  :zip: 04967
  :city: PITTSFIELD
  :state: ME
  :lat: 44.77
  :long: -69.38
04969:
  :zip: 04969
  :city: PLYMOUTH
  :state: ME
  :lat: 44.76
  :long: -69.21
'04274':
  :zip: '04274'
  :city: POLAND
  :state: ME
  :lat: 44.06
  :long: -70.39
04768:
  :zip: 04768
  :city: PORTAGE
  :state: ME
  :lat: 46.76
  :long: -68.47
04855:
  :zip: 04855
  :city: PORT CLYDE
  :state: ME
  :lat: 43.93
  :long: -69.25
04068:
  :zip: 04068
  :city: PORTER
  :state: ME
  :lat: 43.79
  :long: -70.93
'04101':
  :zip: '04101'
  :city: PORTLAND
  :state: ME
  :lat: 43.66
  :long: -70.25
'04102':
  :zip: '04102'
  :city: PORTLAND
  :state: ME
  :lat: 43.66
  :long: -70.25
'04103':
  :zip: '04103'
  :city: PORTLAND
  :state: ME
  :lat: 43.66
  :long: -70.25
'04104':
  :zip: '04104'
  :city: PORTLAND
  :state: ME
  :lat: 43.66
  :long: -70.25
'04105':
  :zip: '04105'
  :city: FALMOUTH
  :state: ME
  :lat: 43.72
  :long: -70.24
'04106':
  :zip: '04106'
  :city: SOUTH PORTLAND
  :state: ME
  :lat: 43.63
  :long: -70.28
'04107':
  :zip: '04107'
  :city: CAPE ELIZABETH
  :state: ME
  :lat: 43.56
  :long: -70.2
04108:
  :zip: 04108
  :city: PEAKS ISLAND
  :state: ME
  :lat: 43.66
  :long: -70.18
04109:
  :zip: 04109
  :city: PORTLAND
  :state: ME
  :lat: 43.66
  :long: -70.25
'04110':
  :zip: '04110'
  :city: CUMBERLAND FORESIDE
  :state: ME
  :lat: 43.75
  :long: -70.2
'04112':
  :zip: '04112'
  :city: PORTLAND
  :state: ME
  :lat: 43.66
  :long: -70.25
'04116':
  :zip: '04116'
  :city: SOUTH PORTLAND
  :state: ME
  :lat: 43.63
  :long: -70.28
'04122':
  :zip: '04122'
  :city: PORTLAND
  :state: ME
  :lat: 43.66
  :long: -70.25
'04123':
  :zip: '04123'
  :city: PORTLAND
  :state: ME
  :lat: 43.66
  :long: -70.25
'04124':
  :zip: '04124'
  :city: PORTLAND
  :state: ME
  :lat: 43.66
  :long: -70.25
04069:
  :zip: 04069
  :city: POWNAL
  :state: ME
  :lat: 43.89
  :long: -70.18
04769:
  :zip: 04769
  :city: PRESQUE ISLE
  :state: ME
  :lat: 46.68
  :long: -67.98
'04637':
  :zip: '04637'
  :city: GRAND LAKE STREAM
  :state: ME
  :lat: 45.17
  :long: -67.77
04668:
  :zip: 04668
  :city: PRINCETON
  :state: ME
  :lat: 45.22
  :long: -67.57
04669:
  :zip: 04669
  :city: PROSPECT HARBOR
  :state: ME
  :lat: 44.42
  :long: -68.03
04970:
  :zip: 04970
  :city: RANGELEY
  :state: ME
  :lat: 44.96
  :long: -70.64
'04071':
  :zip: '04071'
  :city: RAYMOND
  :state: ME
  :lat: 43.9
  :long: -70.47
'04355':
  :zip: '04355'
  :city: READFIELD
  :state: ME
  :lat: 44.38
  :long: -69.96
'04357':
  :zip: '04357'
  :city: RICHMOND
  :state: ME
  :lat: 44.08
  :long: -69.79
'04671':
  :zip: '04671'
  :city: ROBBINSTON
  :state: ME
  :lat: 45.06
  :long: -67.16
04841:
  :zip: 04841
  :city: ROCKLAND
  :state: ME
  :lat: 44.12
  :long: -69.13
04846:
  :zip: 04846
  :city: GLEN COVE
  :state: ME
  :lat: 44.11
  :long: -69.08
04856:
  :zip: 04856
  :city: ROCKPORT
  :state: ME
  :lat: 44.18
  :long: -69.07
04478:
  :zip: 04478
  :city: ROCKWOOD
  :state: ME
  :lat: 45.67
  :long: -69.74
'04564':
  :zip: '04564'
  :city: ROUND POND
  :state: ME
  :lat: 43.91
  :long: -69.46
'04275':
  :zip: '04275'
  :city: ROXBURY
  :state: ME
  :lat: 44.66
  :long: -70.59
'04276':
  :zip: '04276'
  :city: RUMFORD
  :state: ME
  :lat: 44.54
  :long: -70.56
04280:
  :zip: 04280
  :city: SABATTUS
  :state: ME
  :lat: 44.11
  :long: -70.1
'04072':
  :zip: '04072'
  :city: SACO
  :state: ME
  :lat: 43.53
  :long: -70.45
'04772':
  :zip: '04772'
  :city: SAINT AGATHA
  :state: ME
  :lat: 47.24
  :long: -68.31
04971:
  :zip: 04971
  :city: SAINT ALBANS
  :state: ME
  :lat: 44.91
  :long: -69.41
'04773':
  :zip: '04773'
  :city: SAINT DAVID
  :state: ME
  :lat: 47.31
  :long: -68.22
'04774':
  :zip: '04774'
  :city: SAINT FRANCIS
  :state: ME
  :lat: 47.17
  :long: -68.89
'04672':
  :zip: '04672'
  :city: SALSBURY COVE
  :state: ME
  :lat: 44.43
  :long: -68.32
04972:
  :zip: 04972
  :city: SANDY POINT
  :state: ME
  :lat: 44.52
  :long: -68.84
'04073':
  :zip: '04073'
  :city: SANFORD
  :state: ME
  :lat: 43.44
  :long: -70.78
04479:
  :zip: 04479
  :city: SANGERVILLE
  :state: ME
  :lat: 45.16
  :long: -69.35
'04070':
  :zip: '04070'
  :city: SCARBOROUGH
  :state: ME
  :lat: 43.59
  :long: -70.33
'04074':
  :zip: '04074'
  :city: SCARBOROUGH
  :state: ME
  :lat: 43.59
  :long: -70.33
'04674':
  :zip: '04674'
  :city: SEAL COVE
  :state: ME
  :lat: 44.3
  :long: -68.41
'04675':
  :zip: '04675'
  :city: SEAL HARBOR
  :state: ME
  :lat: 44.29
  :long: -68.24
04973:
  :zip: 04973
  :city: SEARSMONT
  :state: ME
  :lat: 44.36
  :long: -69.19
04974:
  :zip: 04974
  :city: SEARSPORT
  :state: ME
  :lat: 44.46
  :long: -68.91
'04565':
  :zip: '04565'
  :city: SEBASCO ESTATES
  :state: ME
  :lat: 43.77
  :long: -69.84
'04673':
  :zip: '04673'
  :city: SARGENTVILLE
  :state: ME
  :lat: 44.32
  :long: -68.7
'04676':
  :zip: '04676'
  :city: SEDGWICK
  :state: ME
  :lat: 44.3
  :long: -68.61
'04076':
  :zip: '04076'
  :city: SHAPLEIGH
  :state: ME
  :lat: 43.54
  :long: -70.84
04975:
  :zip: 04975
  :city: SHAWMUT
  :state: ME
  :lat: 44.62
  :long: -69.6
'04775':
  :zip: '04775'
  :city: SHERIDAN
  :state: ME
  :lat: 46.66
  :long: -68.41
'04776':
  :zip: '04776'
  :city: SHERMAN
  :state: ME
  :lat: 45.81
  :long: -68.31
'04777':
  :zip: '04777'
  :city: STACYVILLE
  :state: ME
  :lat: 45.89
  :long: -68.43
04779:
  :zip: 04779
  :city: SINCLAIR
  :state: ME
  :lat: 47.16
  :long: -68.3
04976:
  :zip: 04976
  :city: SKOWHEGAN
  :state: ME
  :lat: 44.77
  :long: -69.71
04978:
  :zip: 04978
  :city: SMITHFIELD
  :state: ME
  :lat: 44.63
  :long: -69.8
04780:
  :zip: 04780
  :city: SMYRNA MILLS
  :state: ME
  :lat: 46.12
  :long: -68.16
04781:
  :zip: 04781
  :city: WALLAGRASS
  :state: ME
  :lat: 47.15
  :long: -68.57
04979:
  :zip: 04979
  :city: SOLON
  :state: ME
  :lat: 44.94
  :long: -69.85
'04677':
  :zip: '04677'
  :city: SORRENTO
  :state: ME
  :lat: 44.49
  :long: -68.18
03908:
  :zip: 03908
  :city: SOUTH BERWICK
  :state: ME
  :lat: 43.23
  :long: -70.81
04568:
  :zip: 04568
  :city: SOUTH BRISTOL
  :state: ME
  :lat: 43.86
  :long: -69.56
'04077':
  :zip: '04077'
  :city: SOUTH CASCO
  :state: ME
  :lat: 43.87
  :long: -70.51
04358:
  :zip: 04358
  :city: SOUTH CHINA
  :state: ME
  :lat: 44.39
  :long: -69.58
'04013':
  :zip: '04013'
  :city: BUSTINS ISLAND
  :state: ME
  :lat: 43.79
  :long: -70.07
04078:
  :zip: 04078
  :city: SOUTH FREEPORT
  :state: ME
  :lat: 43.86
  :long: -70.1
04359:
  :zip: 04359
  :city: SOUTH GARDINER
  :state: ME
  :lat: 44.17
  :long: -69.78
04079:
  :zip: 04079
  :city: HARPSWELL
  :state: ME
  :lat: 43.8
  :long: -69.98
04281:
  :zip: 04281
  :city: SOUTH PARIS
  :state: ME
  :lat: 44.21
  :long: -70.51
04858:
  :zip: 04858
  :city: SOUTH THOMASTON
  :state: ME
  :lat: 44.05
  :long: -69.12
04679:
  :zip: 04679
  :city: SOUTHWEST HARBOR
  :state: ME
  :lat: 44.27
  :long: -68.33
04487:
  :zip: 04487
  :city: SPRINGFIELD
  :state: ME
  :lat: 45.39
  :long: -68.13
04083:
  :zip: 04083
  :city: SPRINGVALE
  :state: ME
  :lat: 43.46
  :long: -70.8
04859:
  :zip: 04859
  :city: SPRUCE HEAD
  :state: ME
  :lat: 44.01
  :long: -69.17
04084:
  :zip: 04084
  :city: STANDISH
  :state: ME
  :lat: 43.73
  :long: -70.55
04085:
  :zip: 04085
  :city: STEEP FALLS
  :state: ME
  :lat: 43.76
  :long: -70.64
04488:
  :zip: 04488
  :city: STETSON
  :state: ME
  :lat: 44.89
  :long: -69.14
04680:
  :zip: 04680
  :city: STEUBEN
  :state: ME
  :lat: 44.51
  :long: -67.96
04489:
  :zip: 04489
  :city: STILLWATER
  :state: ME
  :lat: 45.01
  :long: -68.72
04783:
  :zip: 04783
  :city: STOCKHOLM
  :state: ME
  :lat: 47.04
  :long: -68.14
04981:
  :zip: 04981
  :city: STOCKTON SPRINGS
  :state: ME
  :lat: 44.48
  :long: -68.85
'04645':
  :zip: '04645'
  :city: ISLE AU HAUT
  :state: ME
  :lat: 44.04
  :long: -68.62
04681:
  :zip: 04681
  :city: STONINGTON
  :state: ME
  :lat: 44.18
  :long: -68.67
04982:
  :zip: 04982
  :city: STRATTON
  :state: ME
  :lat: 45.14
  :long: -70.44
04983:
  :zip: 04983
  :city: STRONG
  :state: ME
  :lat: 44.8
  :long: -70.22
04683:
  :zip: 04683
  :city: SUNSET
  :state: ME
  :lat: 44.22
  :long: -68.7
04684:
  :zip: 04684
  :city: SURRY
  :state: ME
  :lat: 44.49
  :long: -68.5
04685:
  :zip: 04685
  :city: SWANS ISLAND
  :state: ME
  :lat: 44.14
  :long: -68.45
04984:
  :zip: 04984
  :city: TEMPLE
  :state: ME
  :lat: 44.68
  :long: -70.22
04860:
  :zip: 04860
  :city: TENANTS HARBOR
  :state: ME
  :lat: 43.95
  :long: -69.23
04861:
  :zip: 04861
  :city: THOMASTON
  :state: ME
  :lat: 44.08
  :long: -69.18
04986:
  :zip: 04986
  :city: THORNDIKE
  :state: ME
